Bus ID,lat,lng,Zone,Bus Name,Sub Name,Area,BaseKV,PU Volt,Volt (kV),Angle (Deg),MW Load,Load Mvar,Gen MW,Sub Num,Gen Mvar,Switched Shunts Mvar,Act G Shunt MW,Act B Shunt Mvar,Zone Num,Bus Type,Mismatch MW,Mismatch Mvar,Mismatch MVA,Bus Area,Sub Area
111078,29.3563,-95.0852,7,SANTA FE 3,SANTA FE 3 1,Coast,138,1.00841,139.161,-23.03,486.5,117.6,,761,,,0,0,1,PQ,0,0,0,1,12
110449,29.4972,-95.1242,7,LEAGUE CITY 1,LEAGUE CITY 1 1,Coast,138,1.00844,139.164,-24.12,318.4,130.9,,301,,,0,0,1,PQ,0,0,0,1,12
110127,28.9119,-95.9883,7,BAY CITY 3,BAY CITY 3 2,Coast,138,1.02695,141.72,-5.37,222.5,81.8,,39,,,0,0,1,PQ,0,0,0,1,12
110484,28.9711,-95.3739,7,CLUTE 1,CLUTE 1 1,Coast,138,1.02194,141.027,-14.66,221.1,93.8,,330,,,0,0,1,PQ,0,0,0,1,12
220088,31.8382,-102.362,1,ODESSA 12,ODESSA 12 1,Far West,138,1.02516,141.472,27.04,186.9,46.8,,3669,,,0,0,1,PQ,0,0,0,2,23
110404,29.781,-94.9402,7,BAYTOWN 7,BAYTOWN 7 1,Coast,138,1.00974,139.344,-22.73,185.8,111.5,,274,,,0,0,1,PQ,0,0,0,1,12
110944,29.5508,-95.7996,7,ROSENBERG 4,ROSENBERG 4 2,Coast,138,1.02017,140.784,-17.2,176.9,116.8,,682,,,0,0,1,PQ,0,0,0,1,12
110916,29.5737,-95.5396,7,MISSOURI CITY 7,MISSOURI CITY 7 1,Coast,138,0.99781,137.698,-21.12,176.9,122.1,,665,,,0,0,1,PQ,0,0,0,1,12
110340,29.4152,-95.2575,7,ALVIN 1,ALVIN 1 1,Coast,138,0.99653,137.521,-24.74,176.9,16.8,,225,,,0,0,1,PQ,0,0,0,1,12
130328,32.4058,-96.8474,5,WAXAHACHIE 5,WAXAHACHIE 5 2,North Central,138,1.02332,141.219,-15.79,173.3,115,,1548,,,0,0,1,PQ,0,0,0,1,14
150342,32.6293,-97.2993,5,KENNEDALE 7,KENNEDALE 7 2,North Central,138,1.02006,140.768,-16.47,168.1,33.6,,2105,,,0,0,1,PQ,0,0,0,1,16
110442,29.577,-95.0423,7,SEABROOK 1,SEABROOK 1 3,Coast,69,0.97094,66.995,-28.61,160.5,92.4,,297,,,0,0,1,PQ,0,0,0,1,12
220021,30.9833,-102.299,1,MC CAMEY 1,MC CAMEY 1 1,Far West,138,1.03084,142.256,38.34,152.21,31.22,,3602,,,0,0,1,PQ,0,0,0,2,23
160009,27.6832,-97.2579,4,PORT ARANSAS 1,PORT ARANSAS 1 1,South,138,1.01725,140.381,21.24,152.1,42.73,,2225,,,0,0,1,PQ,0,0,0,1,17
160187,27.8923,-97.3103,4,GREGORY 2,GREGORY 2 1,South,138,1.01727,140.383,22.01,150.3,85.5,,2400,,,0,0,1,PQ,0,0,0,1,17
220150,30.9315,-102.2014,1,IRAAN 3,IRAAN 3 1,Far West,138,1.03087,142.261,37.51,147.7,48.7,,3705,,,0,0,1,PQ,0,0,0,2,23
220110,32.0014,-102.064,1,MIDLAND 23,MIDLAND 23 1,Far West,138,1.02968,142.096,22.33,146.9,38.39,,3690,,,0,0,1,PQ,0,0,0,2,23
160140,27.8254,-97.5313,4,CORPUS CHRISTI 8,CORPUS CHRISTI 8 2,South,138,1.03539,142.884,23.19,143.6,68.71,,2353,,,0,0,1,PQ,0,0,0,1,17
220190,31.995,-102.8283,1,GOLDSMITH 4,GOLDSMITH 4 2,Far West,138,1.01953,140.696,33.9,141.5,83.2,,3719,,,0,0,1,PQ,0,0,0,2,23
140372,30.0382,-96.9875,6,WEST POINT 3,WEST POINT 3 1,South Central,345,1.03812,358.152,2.76,136.2,49.5,,1823,,,0,0,1,PQ,0,0,0,1,15
270156,29.8929,-97.9107,6,SAN MARCOS 3,SAN MARCOS 3 1,South Central,138,1.00964,139.33,-2.2,130.9,57.5,,4860,,,0,0,1,PQ,0,0,0,2,28
111068,30.023,-95.3839,7,SPRING 32,SPRING 32 2,Coast,138,1.00657,138.906,-23.47,128.3,88.5,,755,,,0,0,1,PQ,0,0,0,1,12
190060,34.8209,-102.397,2,SUMMERFIELD 1,SUMMERFIELD 1 1,North,138,1.01168,139.612,49.99,125.7,20.16,,3056,,,0,0,1,PQ,0,0,0,1,20
111019,29.7701,-94.6678,7,WALLISVILLE 2,WALLISVILLE 2 1,Coast,138,0.98855,136.42,-27.61,125.6,76.1,,724,,,0,0,1,PQ,0,0,0,1,12
270159,29.8498,-98.0096,6,SAN MARCOS 5,SAN MARCOS 5 1,South Central,138,1.01675,140.311,-1.2,123,54,,4862,,,0,0,1,PQ,0,0,0,2,28
220100,31.9905,-102.142,1,MIDLAND 13,MIDLAND 13 2,Far West,138,1.03211,142.431,26.21,122.4,51.41,,3680,,,0,0,1,PQ,0,0,0,2,23
160290,27.5925,-97.5008,4,CORPUS CHRISTI 33,CORPUS CHRISTI 33 2,South,138,1.02162,140.984,22.42,116.8,74.3,,2428,,,0,0,1,PQ,0,0,0,1,17
130309,32.3463,-96.6432,5,ENNIS 5,ENNIS 5 1,North Central,138,1.02976,142.107,-19.04,115.9,39.62,,1531,,,0,0,1,PQ,0,0,0,1,14
110096,28.931,-96.2976,7,MIDFIELD 1,MIDFIELD 1 4,Coast,1,0.96506,0.965,-6.97,115,75.2,,24,,,0,0,1,PQ,0,0,0,1,12
110123,29.4375,-96.1569,7,HUNGERFORD 2,HUNGERFORD 2 1,Coast,138,1.00615,138.849,-13.42,111.14,79.15,,36,,,0,0,1,PQ,0,0,0,1,12
110338,29.7068,-95.4854,7,BELLAIRE 19,BELLAIRE 19 1,Coast,138,0.98743,136.265,-23.93,110.6,79.6,,224,,,0,0,1,PQ,0,0,0,1,12
260193,32.4758,-97.0464,5,MIDLOTHIAN 4,MIDLOTHIAN 4 1,North Central,138,1.01269,139.751,-16.42,107.26,33,,4706,,,0,0,1,PQ,0,0,0,2,27
150413,32.7706,-97.703,5,WEATHERFORD 8,WEATHERFORD 8 1,North Central,138,1.02155,140.973,-12.41,105.1,59.13,,2170,,,0,0,1,PQ,0,0,0,1,16
230073,30.0861,-96.0465,7,HEMPSTEAD 4,HEMPSTEAD 4 2,Coast,138,1.01942,140.68,-16.6,104,65,,3812,,,0,0,1,PQ,0,0,0,2,24
270077,29.1352,-97.4828,6,WESTHOFF 2,WESTHOFF 2 1,South Central,138,1.02412,141.329,1.25,102.68,74.68,,4792,,,0,0,1,PQ,0,0,0,2,28
111172,29.703,-95.6407,7,SUGAR LAND 75,SUGAR LAND 75 2,Coast,138,1.01291,139.782,-21.01,102.6,75.2,,824,,,0,0,1,PQ,0,0,0,1,12
150095,33.3201,-98.7788,5,OLNEY 1,OLNEY 1 1,North Central,138,1.04119,143.685,4.51,100.8,27.15,,1923,,,0,0,1,PQ,0,0,0,1,16
240316,31.2081,-101.1108,1,BARNHART 2,BARNHART 2 2,Far West,138,1.03408,142.703,24.85,100.68,71.78,,4221,,,0,0,1,PQ,0,0,0,2,25
110132,29.3173,-96.0917,7,WHARTON 2,WHARTON 2 1,Coast,138,1.02084,140.876,-11.42,100.5,9.37,,44,,,0,0,1,PQ,0,0,0,1,12
270158,29.8691,-97.9689,6,SAN MARCOS 4,SAN MARCOS 4 1,South Central,69,0.99319,68.53,-4.61,100.3,36.76,,4861,,,0,0,1,PQ,0,0,0,2,28
111091,29.3725,-94.9718,7,LA MARQUE 3,LA MARQUE 3 1,Coast,69,1.0046,69.317,-29.72,99.8,45.89,,771,,,0,0,1,PQ,0,0,0,1,12
220148,31.2092,-102.2417,1,MC CAMEY 2,MC CAMEY 2 1,Far West,138,1.037,143.106,38.64,99.8,21.3,,3704,,,0,0,1,PQ (Remotely Regulated),0,0,0,2,23
110789,29.7549,-95.3328,7,HOUSTON 31,HOUSTON 31 2,Coast,69,1.00188,69.13,-28.64,99.8,32.5,,575,,,0,0,1,PQ,0,0,0,1,12
180021,27.5258,-99.433,4,LAREDO 16,LAREDO 16 1,South,138,1.0334,142.61,20.4,99.3,23.69,,2902,,,0,0,1,PQ,0,0,0,1,19
110982,30.1293,-95.4063,7,SPRING 20,SPRING 20 1,Coast,138,0.99837,137.776,-23.74,98.2,64.6,,700,,,0,0,1,PQ,0,0,0,1,12
220081,31.8712,-102.36,1,ODESSA 6,ODESSA 6 1,Far West,138,1.02759,141.807,25.93,96.9,55.3,,3662,,,0,0,1,PQ,0,0,0,2,23
240303,31.1814,-101.3188,1,BARNHART 1,BARNHART 1 2,Far West,138,1.0398,143.493,24.72,96.4,50.4,,4217,,,0,0,1,PQ,0,0,0,2,25
220026,30.7353,-101.76,1,SHEFFIELD 1,SHEFFIELD 1 1,Far West,138,1.00334,138.461,33.14,94.9,63.26,,3607,,,0,0,1,PQ,0,0,0,2,23
110791,29.7349,-95.3477,7,HOUSTON 32,HOUSTON 32 2,Coast,69,1.01855,70.28,-29.08,94,25.6,,576,,,0,0,1,PQ,0,0,0,1,12
150153,32.87,-97.5218,5,AZLE 1,AZLE 1 2,North Central,138,1.02958,142.082,-14.28,93.8,53.1,,1969,,,0,0,1,PQ,0,0,0,1,16
111245,29.7592,-95.0096,7,BAYTOWN 12,BAYTOWN 12 1,Coast,138,1.02088,140.881,-22.85,92.1,25.63,,839,,,0,0,1,PQ,0,0,0,1,12
180105,26.4059,-98.9709,4,ROMA 6,ROMA 6 1,South,138,1.03885,143.361,29.74,92,14.5,,2982,,,0,0,1,PQ,0,0,0,1,19
240120,32.4721,-100.421,3,SWEETWATER 1,SWEETWATER 1 1,West,138,1.03258,142.497,23.41,91.6,24.8,,4113,,,0,0,1,PQ,0,0,0,2,25
210279,31.1045,-97.3361,5,TEMPLE 6,TEMPLE 6 2,North Central,69,0.9912,68.392,-4.71,91.3,59.4,,3537,,,0,0,1,PQ,0,0,0,2,22
150390,32.7476,-97.8705,5,MILLSAP 7,MILLSAP 7 1,North Central,138,1.02511,141.465,-10.12,91.2,59.68,,2147,,,0,0,1,PQ,0,0,0,1,16
120416,29.586,-98.2916,6,UNIVERSAL CITY 13,UNIVERSAL CITY 13 2,South Central,138,1.01245,139.718,2.65,91.1,15.9,,1236,,,0,0,1,PQ,0,0,0,1,13
110743,29.995,-95.2578,7,HUMBLE 9,HUMBLE 9 2,Coast,138,1.01891,140.609,-22.59,89.3,18.6,,543,,,0,0,1,PQ,0,0,0,1,12
220101,31.9858,-102.115,1,MIDLAND 14,MIDLAND 14 1,Far West,138,1.04046,143.584,21.41,88.3,18.4,,3681,,97.43,0,0,1,PQ,0,0,0,2,23
110987,30.1322,-95.4673,7,SPRING 21,SPRING 21 1,Coast,138,1.00102,138.141,-24.27,86.7,59.3,,702,,,0,0,1,PQ,0,0,0,1,12
130315,32.0851,-96.5003,5,BARRY 4,BARRY 4 1,North Central,138,1.0236,141.256,-11.98,85.2,55.52,,1536,,,0,0,1,PQ,0,0,0,1,14
220063,32.6463,-101.809,1,ACKERLY 1,ACKERLY 1 1,Far West,138,1.03031,142.183,24.31,85,37.35,,3644,,,0,0,1,PQ,0,0,0,2,23
120397,29.4828,-98.3903,6,CONVERSE 8,CONVERSE 8 2,South Central,69,1.02008,70.386,-1.85,83.5,21.9,,1223,,,0,0,1,PQ,0,0,0,1,13
220205,30.9931,-102.2708,1,MC CAMEY 3,MC CAMEY 3 2,Far West,138,1.03482,142.805,38.29,82.3,5.3,,3724,,,0,0,1,PQ,0,0,0,2,23
220061,32.7335,-101.961,1,LAMESA 1,LAMESA 1 1,Far West,138,1.03411,142.708,24.38,82.1,25.8,,3642,,2.14,0,0,1,PQ,0,0,0,2,23
220094,32.0314,-102.274,1,GARDENDALE 4,GARDENDALE 4 1,Far West,138,1.02703,141.731,22.95,82.08,29.65,,3675,,,0,0,1,PQ,0,0,0,2,23
111084,29.3642,-95.1118,7,SANTA FE 5,SANTA FE 5 1,Coast,69,1.00107,69.074,-25.85,81.9,24.59,,765,,,0,0,1,PQ,0,0,0,1,12
130163,32.9425,-96.8964,5,CARROLLTON 7,CARROLLTON 7 2,North Central,69,0.99528,68.674,-34.16,81.5,27.06,,1402,,,0,0,1,PQ,0,0,0,1,14
120248,29.4387,-98.7522,6,RIO MEDINA 3,RIO MEDINA 3 1,South Central,138,1.01897,140.618,4.25,81.4,29.2,,1114,,,0,0,1,PQ,0,0,0,1,13
260043,32.705,-97.0629,5,GRAND PRAIRIE 11,GRAND PRAIRIE 11 2,North Central,69,0.99481,68.642,-26.08,81.1,23.1,,4593,,,0,0,1,PQ,0,0,0,2,27
220097,32.0204,-102.112,1,MIDLAND 11,MIDLAND 11 1,Far West,138,1.03433,142.737,24.34,81,18.46,,3678,,81.63,0,0,1,PQ,0,0,0,2,23
110005,29.2786,-95.9966,7,LANE CITY 1,LANE CITY 1 1,Coast,138,1.02186,141.016,-11.38,79.7,38.66,,2,,,0,0,1,PQ,0,0,0,1,12
130106,32.6666,-96.7633,5,LANCASTER 1,LANCASTER 1 1,North Central,138,0.99697,137.582,-20.8,79.6,56.6,,1364,,,0,0,1,PQ,0,0,0,1,14
220112,32.2248,-101.489,1,BIG SPRING 5,BIG SPRING 5 1,Far West,138,1.02883,141.978,26.53,79.1,25.55,,3692,,,0,0,1,PQ,0,0,0,2,23
190062,34.4884,-101.746,2,TULIA 1,TULIA 1 2,North,138,1.03247,142.481,42.18,78.9,6.7,,3057,,,0,0,1,PQ,0,0,0,1,20
220161,31.8414,-102.315,1,ODESSA 19,ODESSA 19 2,Far West,138,1.033,142.554,29.9,78.7,46.9,,3709,,,0,0,1,PQ,0,0,0,2,23
210148,31.5502,-97.1587,5,WACO 9,WACO 9 2,North Central,69,1.02643,70.824,-7.15,78.2,24,,3438,,,0,0,1,PQ,0,0,0,2,22
170119,33.2072,-96.7197,5,PROSPER 3,PROSPER 3 2,North Central,138,1.01931,140.665,-24.62,77.8,47.8,,2539,,,0,0,1,PQ,0,0,0,1,18
220141,31.8403,-102.3264,1,ODESSA 18,ODESSA 18 1,Far West,345,1.04,358.8,33.29,77,53.1,,3703,,9.64,0,0,1,PQ (Remotely Regulated),0,0,0,2,23
110177,29.9389,-95.3024,7,HUMBLE 7,HUMBLE 7 2,Coast,69,1.01207,69.832,-27.36,76.9,18.75,,82,,,0,0,1,PQ,0,0,0,1,12
260104,32.9351,-97.0165,5,COPPELL 9,COPPELL 9 2,North Central,69,0.98897,68.239,-31.6,76.6,23.41,,4642,,,0,0,1,PQ,0,0,0,2,27
110550,29.6659,-95.1464,7,DEER PARK 7,DEER PARK 7 1,Coast,69,1.00617,69.426,-27.64,76.2,36.98,,383,,,0,0,1,PQ,0,0,0,1,12
220135,32.2076,-101.3883,1,BIG SPRING 9,BIG SPRING 9 1,Far West,138,1.02684,141.704,27.11,76.1,54.8,,3701,,,0,0,1,PQ,0,0,0,2,23
190021,35.5348,-100.958,2,PAMPA 1,PAMPA 1 1,North,138,1.01902,140.625,44.12,75.7,24.68,,3018,,,0,0,1,PQ,0,0,0,1,20
180062,27.5034,-98.9056,4,BRUNI 1,BRUNI 1 1,South,138,1.045,144.211,24.32,75.4,13.52,,2939,,,0,0,1,PQ,0,0,0,1,19
220129,32.2732,-101.4224,1,BIG SPRING 8,BIG SPRING 8 2,Far West,138,1.02607,141.598,26.62,75.2,47.8,,3700,,,0,0,1,PQ,0,0,0,2,23
220173,32.2353,-101.8367,1,LENORAH 1,LENORAH 1 2,Far West,138,1.03521,142.859,27.25,75.2,18.6,,3712,,,0,0,1,PQ,0,0,0,2,23
260039,32.7474,-97.0354,5,GRAND PRAIRIE 10,GRAND PRAIRIE 10 2,North Central,69,0.9997,68.979,-29.16,75.2,23.94,,4592,,,0,0,1,PQ,0,0,0,2,27
150343,32.6293,-97.2993,5,KENNEDALE 7,KENNEDALE 7 3,North Central,69,1.01301,69.898,-19.36,74.5,15.8,,2105,,,0,0,1,PQ,0,0,0,1,16
120150,29.7649,-98.7066,6,BOERNE 6,BOERNE 6 1,South Central,138,1.0233,141.216,2.59,74.4,43.19,,1028,,,0,0,1,PQ,0,0,0,1,13
120341,29.4308,-98.4535,6,SAN ANTONIO 36,SAN ANTONIO 36 2,South Central,69,1.01338,69.923,0.47,74.1,22.3,,1181,,,0,0,1,PQ,0,0,0,1,13
130306,32.4072,-96.657,5,PALMER 2,PALMER 2 1,North Central,138,1.02337,141.225,-20.36,74,50.06,,1528,,,0,0,1,PQ,0,0,0,1,14
130158,32.9086,-96.7992,5,ADDISON 7,ADDISON 7 1,North Central,138,0.97738,134.879,-26.09,73.4,45.1,,1400,,,0,0,1,PQ,0,0,0,1,14
170222,33.1414,-96.8687,5,FRISCO 7,FRISCO 7 1,North Central,138,1.01511,140.085,-27.39,73.4,47.8,,2614,,,0,0,1,PQ,0,0,0,1,18
200047,26.1898,-97.5053,4,RIO HONDO 2,RIO HONDO 2 1,South,138,1.03547,142.895,30.1,73.29,30.1,,3182,,,0,0,1,PQ,0,0,0,2,21
130081,32.7604,-96.592,5,MESQUITE 2,MESQUITE 2 2,North Central,69,1.02929,71.021,-27.25,72.6,17.29,,1345,,,0,0,1,PQ,0,0,0,1,14
110757,29.9965,-95.1917,7,KINGWOOD 6,KINGWOOD 6 1,Coast,138,1.00993,139.37,-24.63,72.5,24.8,,551,,,0,0,1,PQ,0,0,0,1,12
260100,32.9509,-97.0072,5,COPPELL 8,COPPELL 8 1,North Central,69,0.98837,68.197,-32.01,72.2,11.63,,4639,,,0,0,1,PQ,0,0,0,2,27
150174,32.3495,-97.3948,5,CLEBURNE 4,CLEBURNE 4 2,North Central,69,1.0104,69.718,-15.56,72.1,11.4,,1985,,,0,0,1,PQ,0,0,0,1,16
120022,29.477,-98.8794,6,RIO MEDINA 1,RIO MEDINA 1 1,South Central,138,1.02158,140.978,3.48,71.4,15.33,,903,,,0,0,1,PQ,0,0,0,1,13
260107,32.977,-97.019,5,COPPELL 10,COPPELL 10 3,North Central,69,1.01599,70.103,-30.6,71.1,23,,4643,,,0,0,1,PQ,0,0,0,2,27
130067,32.6959,-96.8987,5,DUNCANVILLE 6,DUNCANVILLE 6 2,North Central,69,1.00599,69.413,-28.87,71,19.3,,1335,,,0,0,1,PQ,0,0,0,1,14
110745,30.0572,-95.1638,7,KINGWOOD 1,KINGWOOD 1 1,Coast,138,1.00112,138.154,-26.54,70.8,35.4,,544,,,0,0,1,PQ,0,0,0,1,12
260138,32.827,-97.1345,5,BEDFORD 1,BEDFORD 1 2,North Central,138,1.02412,141.329,-21.74,70.8,24.8,,4663,,,0,0,1,PQ,0,0,0,2,27
190107,32.7471,-100.9547,3,SNYDER 1,SNYDER 1 1,West,138,1.0126,139.739,29.93,70.3,24.1,,3099,,,0,0,1,PQ,0,0,0,1,20
130111,32.662,-96.8491,5,DUNCANVILLE 9,DUNCANVILLE 9 1,North Central,69,0.99863,68.906,-28.18,70.2,24.8,,1367,,,0,0,1,PQ,0,0,0,1,14
170303,32.9373,-96.7646,5,RICHARDSON 18,RICHARDSON 18 2,North Central,69,1.02362,70.629,-34.1,70.2,14.99,,2674,,,0,0,1,PQ,0,0,0,1,18
150300,32.7927,-97.343,5,FORT WORTH 20,FORT WORTH 20 2,North Central,69,0.99606,68.728,-21.15,70.2,22.72,,2075,,,0,0,1,PQ,0,0,0,1,16
210277,31.099,-97.3677,5,TEMPLE 5,TEMPLE 5 3,North Central,69,1.01792,70.236,-3.88,69.4,14.06,,3536,,,0,0,1,PQ,0,0,0,2,22
200194,26.4512,-98.1775,4,HARGILL 5,HARGILL 5 2,South,138,1.03981,143.494,31.13,69,24.8,,3297,,,0,0,1,PQ,0,0,0,2,21
110144,29.8191,-96.0787,7,SAN FELIPE 2,SAN FELIPE 2 1,Coast,138,1.0361,142.982,-18.47,68.94,33.9,,56,,108.21,0,0,1,PQ,0,0,0,1,12
120356,29.6515,-98.4364,6,BULVERDE 7,BULVERDE 7 1,South Central,138,1.0178,140.456,2.03,68.1,40.7,,1192,,,0,0,1,PQ,0,0,0,1,13
270009,30.2132,-98.5163,6,HYE 1,HYE 1 1,South Central,138,1.0253,141.491,0.53,67.76,35.03,,4725,,,0,0,1,PQ,0,0,0,2,28
150338,32.6601,-97.3336,5,FORT WORTH 22,FORT WORTH 22 2,North Central,69,1.0182,70.256,-19.93,67.7,16.9,,2102,,,0,0,1,PQ,0,0,0,1,16
220067,32.322,-102.539,1,ANDREWS 1,ANDREWS 1 1,Far West,138,1.02547,141.515,26.65,67.64,21.98,,3648,,,0,0,1,PQ,0,0,0,2,23
130124,32.8759,-96.9745,5,IRVING 3,IRVING 3 2,North Central,69,0.99091,68.373,-31.86,67.5,24.28,,1376,,,0,0,1,PQ,0,0,0,1,14
110737,29.3112,-95.7915,7,GUY 2,GUY 2 1,Coast,138,1.01371,139.892,-15.54,67.2,17.7,,539,,,0,0,1,PQ,0,0,0,1,12
150121,32.4161,-98.8322,5,EASTLAND 1,EASTLAND 1 2,North Central,138,1.03271,142.514,2.1,67.1,18.9,,1948,,,0,0,1,PQ,0,0,0,1,16
130161,32.8885,-96.8815,5,CARROLLTON 6,CARROLLTON 6 2,North Central,69,0.99166,68.425,-32.75,67.1,20,,1401,,,0,0,1,PQ,0,0,0,1,14
170501,32.8246,-96.2552,5,TERRELL 5,TERRELL 5 1,North Central,138,1.0276,141.809,-22.72,66.63,16.05,,2849,,,0,0,1,PQ,0,0,0,1,18
170324,32.9369,-96.8336,5,ADDISON 20,ADDISON 20 1,North Central,69,0.96189,66.37,-28.96,66.5,15.56,,2689,,,0,0,1,PQ,0,0,0,1,18
110337,29.6856,-95.4011,7,BELLAIRE 18,BELLAIRE 18 2,Coast,69,1.00566,69.391,-26.62,66.5,12.33,,223,,,0,0,1,PQ,0,0,0,1,12
150513,33.5098,-98.3608,2,WINDTHORST 3,WINDTHORST 3 1,North,345,1.04326,359.923,7.51,66.3,27.4,,2204,,152.33,0,0,1,PQ (Remotely Regulated at Var Limit),0,0,0,1,16
270180,29.7205,-98.0974,6,NEW BRAUNFELS 12,NEW BRAUNFELS 12 2,South Central,138,1.02942,142.059,0.89,66.3,42.5,,4879,,,0,0,1,PQ,0,0,0,2,28
110393,29.7375,-94.9593,7,BAYTOWN 4,BAYTOWN 4 2,Coast,69,1.01025,69.707,-24.36,65.7,16.93,,266,,,0,0,1,PQ,0,0,0,1,12
270122,29.5746,-97.9617,6,SEGUIN 6,SEGUIN 6 2,South Central,69,1.03018,71.082,-6.8,65.5,20.53,,4832,,,0,0,1,PQ,0,0,0,2,28
260036,32.7357,-96.9859,5,GRAND PRAIRIE 8,GRAND PRAIRIE 8 2,North Central,69,0.99458,68.626,-28.68,65.1,25.1,,4590,,,0,0,1,PQ,0,0,0,2,27
260019,32.1715,-97.0083,5,MILFORD 2,MILFORD 2 1,North Central,138,1.01623,140.24,-6.5,64.99,35.78,,4577,,,0,0,1,PQ,0,0,0,2,27
140225,30.1891,-97.7509,6,AUSTIN 54,AUSTIN 54 2,South Central,69,1.03136,71.164,-9.48,64.8,18.7,,1754,,,0,0,1,PQ,0,0,0,1,15
140147,30.3819,-97.7217,6,AUSTIN 42,AUSTIN 42 2,South Central,69,0.99807,68.867,-8.57,64.6,23.09,,1700,,,0,0,1,PQ,0,0,0,1,15
170203,33.088,-96.6758,5,PLANO 3,PLANO 3 2,North Central,69,1.00399,69.275,-29.33,64.6,5.42,,2601,,,0,0,1,PQ,0,0,0,1,18
140293,30.6137,-97.6877,6,GEORGETOWN 5,GEORGETOWN 5 1,South Central,138,1.00444,138.612,-4.87,64.6,42.5,,1800,,,0,0,1,PQ,0,0,0,1,15
111118,29.736,-95.238,7,GALENA PARK 16,GALENA PARK 16 2,Coast,69,0.99852,68.898,-28.36,64.6,24,,790,,,0,0,1,PQ,0,0,0,1,12
170097,32.9734,-96.8936,5,CARROLLTON 11,CARROLLTON 11 2,North Central,69,0.99986,68.99,-34.35,64.5,23.04,,2524,,,0,0,1,PQ,0,0,0,1,18
260099,32.9226,-97.0122,5,COPPELL 7,COPPELL 7 1,North Central,69,0.98637,68.059,-31.53,64.5,17.26,,4638,,,0,0,1,PQ,0,0,0,2,27
130107,32.6666,-96.7633,5,LANCASTER 1,LANCASTER 1 2,North Central,69,1.00776,69.536,-23.4,64.1,16.2,,1364,,,0,0,1,PQ,0,0,0,1,14
150097,33.1022,-98.5794,5,GRAHAM 1,GRAHAM 1 1,North Central,138,1.03408,142.704,1.31,64,19.1,,1925,,,0,0,1,PQ,0,0,0,1,16
210143,31.5107,-97.1925,5,HEWITT 2,HEWITT 2 1,North Central,69,1.02343,70.617,-4.78,64,20.5,,3436,,,0,0,1,PQ,0,0,0,2,22
140268,30.5772,-97.4202,6,TAYLOR 4,TAYLOR 4 3,South Central,69,1.0197,70.359,-5.12,63.7,21.66,,1784,,,0,0,1,PQ,0,0,0,1,15
110212,29.9015,-95.6735,7,KATY 21,KATY 21 1,Coast,138,1.0043,138.593,-19.48,63.7,41.6,,114,,,0,0,1,PQ,0,0,0,1,12
150220,32.7545,-97.3332,5,FORT WORTH 16,FORT WORTH 16 2,North Central,69,1.00593,69.409,-21.9,63.6,14.55,,2020,,,0,0,1,PQ,0,0,0,1,16
250275,33.1564,-94.9695,8,MOUNT PLEASANT 4,MOUNT PLEASANT 4 1,East,138,1.03873,143.344,-21.68,63.6,9.6,,4490,,,0,0,1,PQ,0,0,0,2,26
170103,32.9977,-96.8424,5,ADDISON 15,ADDISON 15 2,North Central,69,1.00388,69.268,-33.6,63.2,13.18,,2526,,,0,0,1,PQ,0,0,0,1,18
170480,33.6271,-96.5991,2,SHERMAN 4,SHERMAN 4 2,North,138,1.03623,143,-21.06,63.1,21.63,,2829,,,0,0,1,PQ,0,0,0,1,18
110828,29.9553,-95.4614,7,SPRING 7,SPRING 7 1,Coast,138,0.99438,137.224,-25.94,62.8,38.9,,603,,,0,0,1,PQ,0,0,0,1,12
220185,31.9362,-101.2983,1,FORSAN 7,FORSAN 7 2,Far West,138,1.03876,143.349,27.44,62.8,15.9,,3717,,,0,0,1,PQ,0,0,0,2,23
110793,29.7494,-95.3689,7,HOUSTON 34,HOUSTON 34 1,Coast,138,1.01878,140.592,-25.59,62.8,23,,578,,,0,0,1,PQ,0,0,0,1,12
240274,31.9925,-101.1167,1,STERLING CITY 3,STERLING CITY 3 2,Far West,138,1.03705,143.113,27.03,62.8,32.7,,4206,,,0,0,1,PQ,0,0,0,2,25
110711,29.775,-95.3806,7,HOUSTON 19,HOUSTON 19 2,Coast,69,0.99994,68.996,-27.84,62.7,20.3,,520,,,0,0,1,PQ,0,0,0,1,12
160161,27.6914,-97.3588,4,CORPUS CHRISTI 26,CORPUS CHRISTI 26 1,South,138,1.02236,141.086,21.77,62.4,21.4,,2374,,,0,0,1,PQ,0,0,0,1,17
120339,29.4341,-98.4027,6,CONVERSE 2,CONVERSE 2 2,South Central,69,1.01421,69.98,-0.34,62,20.7,,1180,,,0,0,1,PQ,0,0,0,1,13
130104,32.7059,-96.806,5,DALLAS 19,DALLAS 19 1,North Central,138,0.99857,137.803,-21.46,61.9,35.4,,1363,,,0,0,1,PQ,0,0,0,1,14
120427,29.5837,-98.2549,6,CIBOLO 5,CIBOLO 5 1,South Central,138,1.00613,138.846,1.79,61.9,36.3,,1245,,,0,0,1,PQ,0,0,0,1,13
120239,29.5783,-98.4657,6,SAN ANTONIO 5,SAN ANTONIO 5 1,South Central,138,1.00795,139.098,0.25,61.9,40.7,,1108,,,0,0,1,PQ,0,0,0,1,13
220168,32.0391,-101.22,1,FORSAN 3,FORSAN 3 1,Far West,138,1.03848,143.31,27.04,61.9,6.2,,3710,,,0,0,1,PQ,0,0,0,2,23
250277,33.1315,-95.6004,8,SULPHUR SPRINGS 5,SULPHUR SPRINGS 5 1,East,138,1.03243,142.475,-21.96,61.6,18.08,,4491,,,0,0,1,PQ,0,0,0,2,26
111017,29.8006,-95.5653,7,BELLAIRE 41,BELLAIRE 41 1,Coast,69,1.02307,70.592,-25.49,61.6,12.3,,722,,,0,0,1,PQ,0,0,0,1,12
150115,34.1488,-99.3012,2,VERNON 1,VERNON 1 1,North,138,1.03794,143.236,18.77,61.4,7.8,,1943,,,0,0,1,PQ,0,0,0,1,16
270181,29.7205,-98.0974,6,NEW BRAUNFELS 12,NEW BRAUNFELS 12 3,South Central,69,1.02325,70.604,-2.04,61.4,13.3,,4879,,,0,0,1,PQ,0,0,0,2,28
210146,31.5106,-97.1925,5,HEWITT 3,HEWITT 3 3,North Central,69,1.02461,70.698,-4.69,60.9,16.18,,3437,,,0,0,1,PQ,0,0,0,2,22
110713,29.8019,-95.4401,7,HOUSTON 20,HOUSTON 20 2,Coast,69,1.00714,69.493,-28.3,60.4,17.9,,521,,,0,0,1,PQ,0,0,0,1,12
130165,32.8714,-96.8986,5,CARROLLTON 8,CARROLLTON 8 2,North Central,69,0.98816,68.183,-32.33,60,17.96,,1403,,,0,0,1,PQ,0,0,0,1,14
170101,32.9733,-96.8638,5,ADDISON 14,ADDISON 14 2,North Central,69,1.01225,69.845,-34.81,59.2,18.41,,2525,,,0,0,1,PQ,0,0,0,1,18
110804,29.67,-95.3546,7,HOUSTON 38,HOUSTON 38 2,Coast,69,1.01629,70.124,-27.57,58.8,14.6,,584,,,0,0,1,PQ,0,0,0,1,12
111069,30.023,-95.3839,7,SPRING 32,SPRING 32 3,Coast,69,0.97507,67.28,-28.06,58.6,19.2,,755,,,0,0,1,PQ,0,0,0,1,12
111095,29.3913,-94.9264,7,TEXAS CITY 5,TEXAS CITY 5 1,Coast,69,1.04118,71.841,-31.97,58.6,18.1,,775,,128.35,0,0,1,PQ,0,0,0,1,12
150298,32.8282,-97.3448,5,FORT WORTH 19,FORT WORTH 19 2,North Central,69,1.0174,70.201,-20.07,58,19.9,,2074,,,0,0,1,PQ,0,0,0,1,16
130142,32.6326,-96.9043,5,DUNCANVILLE 12,DUNCANVILLE 12 2,North Central,69,1.00555,69.383,-25.82,58,18.29,,1389,,,0,0,1,PQ,0,0,0,1,14
110335,29.7147,-95.4105,7,BELLAIRE 17,BELLAIRE 17 2,Coast,69,0.99343,68.547,-27.63,57.9,19.4,,222,,,0,0,1,PQ,0,0,0,1,12
111015,29.8558,-95.5727,7,KATY 85,KATY 85 2,Coast,69,1.01991,70.374,-25.47,57.9,11.29,,720,,,0,0,1,PQ,0,0,0,1,12
110589,29.8231,-95.7076,7,KATY 82,KATY 82 2,Coast,69,1.02324,70.604,-24.25,57.9,19.3,,410,,,0,0,1,PQ,0,0,0,1,12
120259,29.4112,-98.6394,6,LACKLAND A F B 6,LACKLAND A F B 6 2,South Central,69,1.02296,70.585,1.58,57.7,12,,1122,,,0,0,1,PQ,0,0,0,1,13
200132,26.1924,-98.1742,4,SAN JUAN 5,SAN JUAN 5 1,South,138,1.0347,142.788,26.34,57.6,11.1,,3265,,,0,0,1,PQ,0,0,0,2,21
130119,32.8132,-96.9341,5,GRAND PRAIRIE 2,GRAND PRAIRIE 2 2,North Central,69,0.99563,68.698,-30.56,57.2,6.74,,1373,,,0,0,1,PQ,0,0,0,1,14
110888,29.6141,-95.4155,7,FRESNO 3,FRESNO 3 2,Coast,69,1.00311,69.215,-26.05,57.1,18,,646,,,0,0,1,PQ,0,0,0,1,12
110485,28.9711,-95.3739,7,CLUTE 1,CLUTE 1 2,Coast,69,1.02145,70.48,-17.08,56.9,18.6,,330,,,0,0,1,PQ,0,0,0,1,12
130319,32.0824,-96.4749,5,CORSICANA 5,CORSICANA 5 1,North Central,138,1.02747,141.791,-11.1,56.6,19.3,,1540,,,0,0,1,PQ,0,0,0,1,14
130122,32.8232,-96.8877,5,DALLAS 22,DALLAS 22 2,North Central,69,1.00521,69.36,-31.09,56.5,9.5,,1375,,,0,0,1,PQ,0,0,0,1,14
150359,33.9081,-98.4762,2,WICHITA FALLS 7,WICHITA FALLS 7 1,North,138,1.02751,141.797,6.2,56.5,7,,2119,,,0,0,1,PQ,0,0,0,1,16
170207,33.0273,-96.6711,5,PLANO 4,PLANO 4 2,North Central,69,1.02764,70.907,-30.27,56.5,15.8,,2603,,,0,0,1,PQ,0,0,0,1,18
130073,32.8,-96.5928,5,MESQUITE 1,MESQUITE 1 1,North Central,69,1.03408,71.352,-28.36,56.5,20.4,,1340,,79.24,0,0,1,PQ,0,0,0,1,14
260142,32.8197,-97.1766,5,HURST 4,HURST 4 2,North Central,69,1.00857,69.591,-22.84,56.3,8.79,,4665,,,0,0,1,PQ,0,0,0,2,27
110430,29.7637,-95.1026,7,CHANNELVIEW 11,CHANNELVIEW 11 2,Coast,69,1.02343,70.617,-25.69,56.1,15.8,,291,,,0,0,1,PQ,0,0,0,1,12
260152,32.8523,-97.0876,5,EULESS 3,EULESS 3 2,North Central,69,1.0177,70.221,-25.11,56.1,19.9,,4672,,,0,0,1,PQ,0,0,0,2,27
140195,30.4287,-97.6788,6,ROUND ROCK 6,ROUND ROCK 6 2,South Central,69,0.99826,68.88,-8.01,55.9,3.99,,1735,,,0,0,1,PQ,0,0,0,1,15
140090,30.2681,-97.7387,6,AUSTIN 25,AUSTIN 25 2,South Central,69,1.00525,69.362,-10.22,55.7,20.2,,1655,,,0,0,1,PQ,0,0,0,1,15
130075,32.7427,-96.6332,5,BALCH SPRINGS 4,BALCH SPRINGS 4 2,North Central,69,1.02465,70.701,-27.81,55.7,4.74,,1341,,,0,0,1,PQ,0,0,0,1,14
240167,32.4362,-99.7881,3,DYESS AFB 9,DYESS AFB 9 2,West,138,1.04375,144.037,16.2,55.6,17.24,,4159,,,0,0,1,PQ,0,0,0,2,25
130153,32.866,-96.8619,5,ADDISON 4,ADDISON 4 2,North Central,69,1.00073,69.05,-32.28,55.5,21.2,,1396,,,0,0,1,PQ,0,0,0,1,14
140292,30.5243,-97.6706,6,ROUND ROCK 15,ROUND ROCK 15 2,South Central,69,0.98606,68.038,-8.48,55.5,19.1,,1799,,,0,0,1,PQ,0,0,0,1,15
110797,29.7123,-95.2876,7,GALENA PARK 12,GALENA PARK 12 2,Coast,69,1.00962,69.664,-27.07,55.4,12.7,,580,,,0,0,1,PQ,0,0,0,1,12
140221,30.2366,-97.8981,6,MANCHACA 10,MANCHACA 10 2,South Central,69,1.00685,69.473,-9.7,55.3,16,,1753,,,0,0,1,PQ,0,0,0,1,15
260046,32.7191,-97.0179,5,GRAND PRAIRIE 12,GRAND PRAIRIE 12 1,North Central,69,0.99466,68.631,-28.42,55,14.7,,4595,,,0,0,1,PQ,0,0,0,2,27
130127,32.967,-96.9844,5,COPPELL 1,COPPELL 1 2,North Central,69,0.99943,68.96,-31.7,55,13.32,,1378,,,0,0,1,PQ,0,0,0,1,14
260174,32.7712,-97.0749,5,GRAND PRAIRIE 22,GRAND PRAIRIE 22 2,North Central,69,1.02886,70.991,-28.33,55,7.8,,4690,,,0,0,1,PQ,0,0,0,2,27
110364,30.3178,-95.4587,7,CONROE 9,CONROE 9 1,Coast,69,1.02525,70.742,-26.44,54.8,10.1,,244,,157.04,0,0,1,PQ,0,0,0,1,12
170133,33.2005,-96.619,5,MCKINNEY 11,MCKINNEY 11 2,North Central,69,1.00388,69.268,-29.71,54.7,16.14,,2549,,,0,0,1,PQ,0,0,0,1,18
110173,29.9162,-95.3585,7,HUMBLE 6,HUMBLE 6 2,Coast,69,1.00732,69.505,-27.82,54.7,11.6,,80,,,0,0,1,PQ,0,0,0,1,12
170301,32.8918,-96.7256,5,RICHARDSON 17,RICHARDSON 17 2,North Central,69,1.02331,70.608,-32.25,54.7,18.9,,2673,,,0,0,1,PQ,0,0,0,1,18
120310,29.4871,-98.6709,6,LACKLAND A F B 12,LACKLAND A F B 12 2,South Central,69,1.01513,70.044,-0.3,54.6,19,,1163,,,0,0,1,PQ,0,0,0,1,13
120312,29.5098,-98.6151,6,SAN ANTONIO 28,SAN ANTONIO 28 2,South Central,69,1.0051,69.352,-1.62,54.6,10.8,,1164,,,0,0,1,PQ,0,0,0,1,13
140190,30.4031,-97.645,6,PFLUGERVILLE 5,PFLUGERVILLE 5 2,South Central,69,1.00551,69.38,-6.91,54.5,11.1,,1731,,,0,0,1,PQ,0,0,0,1,15
130054,32.7735,-96.88,5,DALLAS 6,DALLAS 6 2,North Central,69,1.00692,69.478,-30.47,54.4,15.9,,1323,,,0,0,1,PQ,0,0,0,1,14
130140,32.6594,-96.9035,5,DUNCANVILLE 11,DUNCANVILLE 11 1,North Central,69,0.99964,68.975,-25.93,54.3,15.5,,1388,,,0,0,1,PQ,0,0,0,1,14
110587,29.7688,-95.7527,7,KATY 81,KATY 81 3,Coast,69,1.03055,71.108,-22.58,54.3,9.7,,409,,,0,0,1,PQ,0,0,0,1,12
130134,32.9258,-96.9314,5,CARROLLTON 1,CARROLLTON 1 2,North Central,69,1.0032,69.221,-32.25,54.1,21.3,,1383,,,0,0,1,PQ,0,0,0,1,14
190101,35.2131,-101.857,2,AMARILLO 24,AMARILLO 24 1,North,138,1.03979,143.491,42.03,53.8,10.7,,3095,,,0,0,1,PQ,0,0,0,1,20
160157,27.8055,-97.4252,4,CORPUS CHRISTI 22,CORPUS CHRISTI 22 1,South,138,1.02113,140.917,20.84,53.5,15.4,,2370,,,0,0,1,PQ,0,0,0,1,17
170184,32.9411,-96.6342,5,GARLAND 7,GARLAND 7 2,North Central,69,1.01187,69.819,-28.42,53.5,10.4,,2589,,,0,0,1,PQ,0,0,0,1,18
111073,30.0134,-95.3067,7,HUMBLE 12,HUMBLE 12 2,Coast,69,0.99284,68.506,-27.19,53.1,16,,756,,,0,0,1,PQ,0,0,0,1,12
190086,35.1855,-101.885,2,AMARILLO 13,AMARILLO 13 1,North,138,1.0387,143.341,41.87,52.9,16,,3080,,,0,0,1,PQ,0,0,0,1,20
170322,32.9406,-96.8111,5,ADDISON 18,ADDISON 18 2,North Central,69,0.96496,66.582,-28.58,52.9,16.9,,2687,,,0,0,1,PQ,0,0,0,1,18
110401,29.7297,-94.8619,7,BAYTOWN 6,BAYTOWN 6 1,Coast,69,0.97262,67.111,-28.25,52.8,29.5,,271,,,0,0,1,PQ,0,0,0,1,12
110405,29.781,-94.9402,7,BAYTOWN 7,BAYTOWN 7 2,Coast,69,1.00054,69.037,-25.26,52.7,5.7,,274,,,0,0,1,PQ,0,0,0,1,12
160156,27.7951,-97.455,4,CORPUS CHRISTI 21,CORPUS CHRISTI 21 1,South,138,1.04152,143.73,19.98,52.5,4.07,,2369,,122.02,0,0,1,PQ,0,0,0,1,17
130114,32.709,-96.7753,5,DALLAS 21,DALLAS 21 2,North Central,69,1.03178,71.193,-27.39,52.4,17.5,,1369,,,0,0,1,PQ,0,0,0,1,14
170299,32.9469,-96.705,5,RICHARDSON 16,RICHARDSON 16 2,North Central,69,1.01303,69.899,-29.69,52.4,17.6,,2672,,,0,0,1,PQ,0,0,0,1,18
111052,29.9578,-95.3827,7,SPRING 24,SPRING 24 2,Coast,69,1.0022,69.152,-27.47,52.2,12.1,,746,,,0,0,1,PQ,0,0,0,1,12
170318,32.9513,-96.8545,5,ADDISON 17,ADDISON 17 2,North Central,69,1.01022,69.705,-35.09,52.2,3.46,,2686,,,0,0,1,PQ,0,0,0,1,18
110428,29.7569,-95.124,7,CHANNELVIEW 10,CHANNELVIEW 10 1,Coast,69,1.0173,70.194,-26.88,52.2,17.3,,290,,,0,0,1,PQ,0,0,0,1,12
130330,32.3282,-96.6324,5,ENNIS 6,ENNIS 6 2,North Central,138,1.03211,142.431,-18.54,52.2,14.23,,1549,,,0,0,1,PQ,0,0,0,1,14
170107,33.0048,-96.9078,5,CARROLLTON 12,CARROLLTON 12 2,North Central,69,1.01351,69.932,-32.52,51.9,17.8,,2529,,,0,0,1,PQ,0,0,0,1,18
110802,29.7238,-95.319,7,HOUSTON 37,HOUSTON 37 2,Coast,69,1.00657,69.453,-27.45,51.9,22.5,,583,,,0,0,1,PQ,0,0,0,1,12
130132,32.9082,-96.9661,5,IRVING 5,IRVING 5 2,North Central,69,1.0024,69.165,-31.67,51.8,21.3,,1382,,,0,0,1,PQ,0,0,0,1,14
120318,29.5631,-98.6502,6,HELOTES 13,HELOTES 13 2,South Central,69,1.01947,70.344,-2.7,51.8,17.2,,1166,,,0,0,1,PQ,0,0,0,1,13
111151,29.6934,-95.5502,7,STAFFORD 18,STAFFORD 18 2,Coast,69,0.99726,68.811,-23.99,51.7,16,,811,,,0,0,1,PQ,0,0,0,1,12
120412,29.3833,-98.5255,6,SAN ANTONIO 57,SAN ANTONIO 57 2,South Central,69,1.02373,70.637,0.92,51.7,18.3,,1233,,,0,0,1,PQ,0,0,0,1,13
130298,32.8293,-96.8377,5,DALLAS 42,DALLAS 42 2,North Central,69,0.98685,68.093,-26.22,51.6,27.9,,1520,,,0,0,1,PQ,0,0,0,1,14
110390,29.7346,-95.0069,7,BAYTOWN 2,BAYTOWN 2 1,Coast,69,1.00107,69.074,-25.76,51.5,21.1,,264,,,0,0,1,PQ,0,0,0,1,12
170290,33.0086,-96.6817,5,RICHARDSON 14,RICHARDSON 14 1,North Central,69,1.03572,71.465,-31.4,51.4,4.75,,2668,,118.19,0,0,1,PQ,0,0,0,1,18
170443,33.2171,-97.1358,5,DENTON 7,DENTON 7 2,North Central,69,1.00591,69.408,-28.62,51.3,8.9,,2795,,,0,0,1,PQ,0,0,0,1,18
130137,32.9576,-96.912,5,CARROLLTON 2,CARROLLTON 2 1,North Central,69,0.99989,68.992,-33.51,51.3,13.73,,1386,,,0,0,1,PQ,0,0,0,1,14
110857,29.9225,-95.5054,7,CYPRESS 42,CYPRESS 42 2,Coast,69,1.00566,69.391,-26.12,51.1,10.19,,626,,,0,0,1,PQ,0,0,0,1,12
260147,32.8802,-97.088,5,EULESS 1,EULESS 1 1,North Central,69,1.04857,72.351,-29.23,51.1,12.45,,4668,,94.34,0,0,1,PQ,0,0,0,2,27
110584,29.8032,-95.8122,7,KATY 80,KATY 80 1,Coast,69,1.01863,70.285,-24.29,51,14.3,,408,,,0,0,1,PQ,0,0,0,1,12
190103,35.2105,-101.728,2,AMARILLO 26,AMARILLO 26 1,North,138,1.03685,143.086,43.05,50.9,12.77,,3097,,,0,0,1,PQ,0,0,0,1,20
260109,33.014,-97.0376,5,LEWISVILLE 6,LEWISVILLE 6 2,North Central,69,1.01544,70.065,-31.95,50.7,11.35,,4644,,,0,0,1,PQ,0,0,0,2,27
260037,32.7451,-97.0012,5,GRAND PRAIRIE 9,GRAND PRAIRIE 9 1,North Central,69,0.98631,68.055,-29.94,50.7,11.68,,4591,,,0,0,1,PQ,0,0,0,2,27
210301,31.7113,-98.9746,5,BROWNWOOD 1,BROWNWOOD 1 1,North Central,138,1.02806,141.873,4.72,50.6,13.35,,3558,,,0,0,1,PQ,0,0,0,2,22
260139,32.827,-97.1345,5,BEDFORD 1,BEDFORD 1 3,North Central,69,1.02827,70.951,-26.27,50.6,15.1,,4663,,,0,0,1,PQ,0,0,0,2,27
270167,29.6943,-98.1331,6,NEW BRAUNFELS 2,NEW BRAUNFELS 2 2,South Central,69,1.01904,70.314,-2.57,50.6,12.4,,4868,,,0,0,1,PQ,0,0,0,2,28
180004,28.7,-100.481,4,EAGLE PASS 2,EAGLE PASS 2 1,South,138,1.04206,143.804,15,50.6,10.9,,2886,,,0,0,1,PQ,0,0,0,1,19
170170,33.0069,-96.5355,5,WYLIE 1,WYLIE 1 3,North Central,69,1.02298,70.586,-26.34,50.5,17.8,,2579,,,0,0,1,PQ,0,0,0,1,18
111007,29.8321,-95.4766,7,BELLAIRE 35,BELLAIRE 35 2,Coast,69,1.00252,69.174,-26.64,50.4,13.28,,713,,,0,0,1,PQ,0,0,0,1,12
111177,29.6734,-95.641,7,SUGAR LAND 77,SUGAR LAND 77 2,Coast,69,1.01001,69.691,-22.41,50.4,10.4,,826,,,0,0,1,PQ,0,0,0,1,12
170292,33.0086,-96.6817,5,RICHARDSON 15,RICHARDSON 15 2,North Central,69,1.03446,71.378,-31.33,50.4,14.15,,2669,,,0,0,1,PQ,0,0,0,1,18
160160,27.6818,-97.3999,4,CORPUS CHRISTI 25,CORPUS CHRISTI 25 1,South,138,1.02581,141.561,22.05,50.3,10.3,,2373,,,0,0,1,PQ,0,0,0,1,17
140088,30.266,-97.7501,6,AUSTIN 24,AUSTIN 24 1,South Central,69,1.00522,69.36,-10.37,50.3,16.4,,1654,,,0,0,1,PQ,0,0,0,1,15
130083,32.7831,-96.6364,5,MESQUITE 3,MESQUITE 3 2,North Central,69,1.02824,70.948,-29.6,50.3,9.7,,1346,,,0,0,1,PQ,0,0,0,1,14
110773,29.6956,-95.377,7,HOUSTON 25,HOUSTON 25 2,Coast,69,1.00502,69.346,-26.83,50.2,12.94,,563,,,0,0,1,PQ,0,0,0,1,12
270155,29.8806,-97.9498,6,SAN MARCOS 2,SAN MARCOS 2 3,South Central,69,1.01104,69.762,-3.29,50.1,13.4,,4859,,,0,0,1,PQ,0,0,0,2,28
110424,29.7963,-95.2648,7,GALENA PARK 4,GALENA PARK 4 1,Coast,69,1.00911,69.629,-28.68,50,7.86,,286,,,0,0,1,PQ,0,0,0,1,12
200004,26.156,-97.9897,4,WESLACO 3,WESLACO 3 2,South,138,1.04219,143.822,29.11,49.8,10.3,,3140,,,0,0,1,PQ,0,0,0,2,21
230240,30.5612,-97.0711,6,ROCKDALE 6,ROCKDALE 6 1,South Central,138,1.03039,142.194,-3.65,49.78,36.9,,3976,,,0,0,1,PQ,0,0,0,2,24
150455,34.0035,-98.5535,2,SHEPPARD AFB 5,SHEPPARD AFB 5 1,North,138,1.03799,143.242,9.05,49.7,6.4,,2189,,,0,0,1,PQ,0,0,0,1,16
111050,29.9811,-95.3672,7,SPRING 23,SPRING 23 1,Coast,69,0.99319,68.53,-27.84,49.5,13.71,,745,,,0,0,1,PQ,0,0,0,1,12
260170,32.6923,-97.137,5,ARLINGTON 14,ARLINGTON 14 2,North Central,69,1.0218,70.504,-25.06,49.3,7.2,,4687,,,0,0,1,PQ,0,0,0,2,27
150351,33.9347,-98.5259,2,SHEPPARD AFB 2,SHEPPARD AFB 2 1,North,138,1.02605,141.595,6.05,49.3,17,,2111,,,0,0,1,PQ,0,0,0,1,16
170297,32.9213,-96.6889,5,GARLAND 13,GARLAND 13 2,North Central,69,1.01549,70.069,-29.71,49.2,7.8,,2671,,,0,0,1,PQ,0,0,0,1,18
170295,32.9213,-96.6889,5,GARLAND 12,GARLAND 12 1,North Central,69,1.01462,70.009,-29.76,49.2,16.6,,2670,,,0,0,1,PQ,0,0,0,1,18
130055,32.7421,-96.9146,5,DUNCANVILLE 2,DUNCANVILLE 2 1,North Central,69,0.99272,68.498,-29.45,49.1,22.4,,1324,,,0,0,1,PQ,0,0,0,1,14
170482,33.7668,-96.5578,2,DENISON 7,DENISON 7 1,North,138,1.03436,142.742,-21.15,49.1,13.25,,2830,,,0,0,1,PQ,0,0,0,1,18
170191,33.0145,-96.6484,5,SACHSE 6,SACHSE 6 2,North Central,69,1.03076,71.123,-30.1,49,15.58,,2594,,,0,0,1,PQ,0,0,0,1,18
110411,29.7542,-95.2127,7,GALENA PARK 3,GALENA PARK 3 2,Coast,69,1.00389,69.268,-27.98,49,13.9,,279,,,0,0,1,PQ,0,0,0,1,12
130294,32.783,-96.7791,5,DALLAS 41,DALLAS 41 2,North Central,69,1.04138,71.855,-28.75,49,15.3,,1519,,,0,0,1,PQ,0,0,0,1,14
110780,29.7379,-95.2975,7,GALENA PARK 9,GALENA PARK 9 1,Coast,69,1.00446,69.308,-28.3,49,11.3,,568,,,0,0,1,PQ,0,0,0,1,12
170279,32.9059,-96.7528,5,RICHARDSON 7,RICHARDSON 7 1,North Central,69,0.96995,66.926,-28.73,48.9,12.18,,2658,,,0,0,1,PQ,0,0,0,1,18
130139,32.9575,-96.912,5,CARROLLTON 3,CARROLLTON 3 2,North Central,69,1.0007,69.048,-33.57,48.8,19.55,,1387,,,0,0,1,PQ,0,0,0,1,14
150360,33.8962,-98.5336,2,WICHITA FALLS 8,WICHITA FALLS 8 1,North,138,1.02962,142.088,6.55,48.8,12.3,,2120,,,0,0,1,PQ,0,0,0,1,16
110705,29.8578,-95.3733,7,HOUSTON 14,HOUSTON 14 1,Coast,69,0.99673,68.774,-28.37,48.8,14.1,,515,,,0,0,1,PQ,0,0,0,1,12
170087,33.0023,-96.7995,5,ADDISON 9,ADDISON 9 2,North Central,69,1.01059,69.73,-32.55,48.8,11.3,,2517,,,0,0,1,PQ,0,0,0,1,18
260034,32.707,-96.9902,5,GRAND PRAIRIE 7,GRAND PRAIRIE 7 2,North Central,69,0.99665,68.769,-28.17,48.8,14.6,,4589,,,0,0,1,PQ,0,0,0,2,27
110800,29.781,-95.2829,7,GALENA PARK 13,GALENA PARK 13 2,Coast,69,1.00651,69.449,-28.05,48.8,15.05,,582,,,0,0,1,PQ,0,0,0,1,12
110493,29.025,-95.4167,7,CLUTE 4,CLUTE 4 2,Coast,69,1.02018,70.392,-17.12,48.5,9.3,,337,,,0,0,1,PQ,0,0,0,1,12
170507,32.71,-96.2898,5,TERRELL 6,TERRELL 6 1,North Central,138,1.02411,141.327,-23.02,48.5,17.1,,2855,,,0,0,1,PQ,0,0,0,1,18
150094,33.5557,-97.8131,2,SUNSET 1,SUNSET 1 1,North,138,1.02278,141.143,-13.13,48.4,12.01,,1922,,,0,0,1,PQ,0,0,0,1,16
110995,29.8515,-95.5531,7,BELLAIRE 28,BELLAIRE 28 1,Coast,69,1.01195,69.825,-26.19,48.3,6.95,,706,,,0,0,1,PQ,0,0,0,1,12
230069,30.1608,-96.3947,6,BRENHAM 5,BRENHAM 5 2,South Central,138,1.03214,142.436,-8.44,48.1,17.1,,3809,,,0,0,1,PQ,0,0,0,2,24
110341,29.4152,-95.2575,7,ALVIN 1,ALVIN 1 2,Coast,69,0.99104,68.382,-27.2,48.1,16.9,,225,,,0,0,1,PQ,0,0,0,1,12
170089,33.0394,-96.8288,5,ADDISON 10,ADDISON 10 2,North Central,69,1.00148,69.102,-32.37,48.1,13.5,,2518,,,0,0,1,PQ,0,0,0,1,18
260052,32.8265,-97.0309,5,GRAND PRAIRIE 14,GRAND PRAIRIE 14 1,North Central,69,0.97439,67.233,-31.86,48,15.1,,4599,,,0,0,1,PQ,0,0,0,2,27
110326,29.6986,-95.5149,7,BELLAIRE 11,BELLAIRE 11 2,Coast,69,0.99111,68.386,-25.02,48,13.6,,216,,,0,0,1,PQ,0,0,0,1,12
170223,33.1414,-96.8687,5,FRISCO 7,FRISCO 7 2,North Central,69,1.01917,70.323,-29.8,47.9,14.5,,2614,,,0,0,1,PQ,0,0,0,1,18
140156,30.3,-97.6267,6,MANOR 1,MANOR 1 2,South Central,69,0.99507,68.66,-9.09,47.9,17,,1707,,,0,0,1,PQ,0,0,0,1,15
130105,32.7059,-96.806,5,DALLAS 19,DALLAS 19 2,North Central,69,1.02404,70.659,-26.77,47.9,9.3,,1363,,,0,0,1,PQ,0,0,0,1,14
250343,31.337,-94.7426,8,LUFKIN 15,LUFKIN 15 1,East,138,1.03636,143.018,-14.27,47.9,2.63,,4550,,,0,0,1,PQ,0,0,0,2,26
110798,29.7647,-95.3128,7,HOUSTON 36,HOUSTON 36 1,Coast,69,1.00283,69.195,-28.87,47.9,3.24,,581,,,0,0,1,PQ,0,0,0,1,12
110880,29.5757,-95.3245,7,PEARLAND 11,PEARLAND 11 2,Coast,69,0.99514,68.664,-26.76,47.9,17.3,,642,,,0,0,1,PQ,0,0,0,1,12
130116,32.8307,-96.915,5,IRVING 1,IRVING 1 1,North Central,69,0.98744,68.133,-31.01,47.7,11.53,,1371,,,0,0,1,PQ,0,0,0,1,14
150204,32.7377,-97.3319,5,FORT WORTH 4,FORT WORTH 4 1,North Central,69,1.00254,69.175,-21.89,47.6,18.6,,2007,,,0,0,1,PQ,0,0,0,1,16
200144,26.1977,-97.6893,4,HARLINGEN 3,HARLINGEN 3 2,South,138,1.04007,143.53,28.52,47.5,13.4,,3276,,,0,0,1,PQ,0,0,0,2,21
190063,35.081,-102.387,2,WILDORADO 1,WILDORADO 1 1,North,138,1.03236,142.466,49.72,47.5,6.6,,3058,,,0,0,1,PQ,0,0,0,1,20
140057,30.0809,-97.8373,6,BUDA 2,BUDA 2 2,South Central,69,1.00308,69.212,-6.8,47.4,11.3,,1629,,,0,0,1,PQ,0,0,0,1,15
110415,29.7858,-95.1775,7,CHANNELVIEW 3,CHANNELVIEW 3 2,Coast,69,1.01855,70.28,-26.94,47.1,9.6,,280,,,0,0,1,PQ,0,0,0,1,12
110974,30.159,-95.4475,7,SPRING 17,SPRING 17 3,Coast,69,0.99919,68.944,-25.21,47.1,12.1,,695,,,0,0,1,PQ,0,0,0,1,12
150142,32.7246,-97.2549,5,HALTOM CITY 1,HALTOM CITY 1 2,North Central,69,1.0257,70.773,-23.16,47.1,14.2,,1963,,,0,0,1,PQ,0,0,0,1,16
111085,29.39,-94.9041,7,TEXAS CITY 2,TEXAS CITY 2 1,Coast,69,1.04343,71.996,-32.28,47,13.5,,766,,80.57,0,0,1,PQ,0,0,0,1,12
111148,29.7608,-95.6209,7,KATY 86,KATY 86 2,Coast,69,1.01552,70.071,-24.19,46.9,11.1,,809,,,0,0,1,PQ,0,0,0,1,12
111058,30.0203,-95.4398,7,SPRING 27,SPRING 27 2,Coast,69,0.99498,68.653,-26.2,46.9,13.4,,749,,,0,0,1,PQ,0,0,0,1,12
120223,29.2563,-98.5392,6,VON ORMY 3,VON ORMY 3 2,South Central,69,1.0265,70.828,3.51,46.9,11.63,,1094,,,0,0,1,PQ,0,0,0,1,13
130144,32.6652,-96.9137,5,DUNCANVILLE 13,DUNCANVILLE 13 2,North Central,69,0.99942,68.96,-25.94,46.8,8.05,,1390,,,0,0,1,PQ,0,0,0,1,14
170454,33.6621,-95.5476,2,PARIS 3,PARIS 3 1,North,138,1.04106,143.666,-17.45,46.7,12.8,,2805,,5.26,0,0,1,PQ,0,0,0,1,18
110763,30.0695,-95.1937,7,KINGWOOD 8,KINGWOOD 8 2,Coast,69,1.01873,70.292,-27.42,46.6,16.8,,555,,,0,0,1,PQ,0,0,0,1,12
170243,33.0629,-96.8109,5,PLANO 5,PLANO 5 2,North Central,69,1.03025,71.087,-31.55,46.6,12,,2630,,,0,0,1,PQ,0,0,0,1,18
111123,29.6506,-95.2537,7,SOUTH HOUSTON 11,SOUTH HOUSTON 11 2,Coast,69,1.01112,69.768,-26.79,46.5,9.41,,792,,,0,0,1,PQ,0,0,0,1,12
170277,32.9824,-96.7695,5,RICHARDSON 6,RICHARDSON 6 2,North Central,69,1.01155,69.797,-31.43,46.5,9.9,,2656,,,0,0,1,PQ,0,0,0,1,18
110419,29.8047,-95.1217,7,CHANNELVIEW 5,CHANNELVIEW 5 3,Coast,69,1.01928,70.33,-26.47,46.5,15.3,,282,,,0,0,1,PQ,0,0,0,1,12
110339,29.7068,-95.4854,7,BELLAIRE 19,BELLAIRE 19 2,Coast,69,0.99911,68.939,-25.54,46.4,6.1,,224,,,0,0,1,PQ,0,0,0,1,12
130049,32.8081,-96.8765,5,DALLAS 3,DALLAS 3 1,North Central,69,1.04021,71.774,-30.02,46.4,9.6,,1320,,501.63,0,0,1,PQ,0,0,0,1,14
140284,30.4964,-97.6819,6,ROUND ROCK 13,ROUND ROCK 13 2,South Central,69,0.98245,67.789,-8.75,46.3,9.4,,1795,,,0,0,1,PQ,0,0,0,1,15
111005,29.8497,-95.523,7,BELLAIRE 34,BELLAIRE 34 2,Coast,69,1.00015,69.011,-26.31,46.3,8.69,,712,,,0,0,1,PQ,0,0,0,1,12
160159,27.7435,-97.3903,4,CORPUS CHRISTI 24,CORPUS CHRISTI 24 1,South,138,1.02301,141.175,20.63,46.2,14.8,,2372,,,0,0,1,PQ,0,0,0,1,17
140212,30.2235,-97.7766,6,AUSTIN 53,AUSTIN 53 2,South Central,69,1.02221,70.532,-9.55,46.1,16.1,,1747,,,0,0,1,PQ,0,0,0,1,15
170205,33.1243,-96.6588,5,ALLEN 10,ALLEN 10 2,North Central,69,1.00543,69.375,-29.23,46.1,6.8,,2602,,,0,0,1,PQ,0,0,0,1,18
170093,32.9768,-96.8119,5,ADDISON 12,ADDISON 12 2,North Central,69,1.01887,70.302,-32.61,45.9,9,,2521,,,0,0,1,PQ,0,0,0,1,18
111049,29.9415,-95.6174,7,CYPRESS 53,CYPRESS 53 2,Coast,69,1.01843,70.271,-24.96,45.9,14.3,,744,,,0,0,1,PQ,0,0,0,1,12
111054,29.9859,-95.4194,7,SPRING 25,SPRING 25 2,Coast,69,1.00121,69.083,-26.95,45.9,11.5,,747,,,0,0,1,PQ,0,0,0,1,12
260053,32.7877,-97.037,5,GRAND PRAIRIE 15,GRAND PRAIRIE 15 1,North Central,69,1.03779,71.608,-29.38,45.8,10.5,,4600,,172.75,0,0,1,PQ,0,0,0,2,27
110422,29.842,-95.1801,7,CHANNELVIEW 7,CHANNELVIEW 7 2,Coast,69,1.02544,70.755,-25.37,45.8,8.1,,284,,,0,0,1,PQ,0,0,0,1,12
110782,29.6828,-95.297,7,SOUTH HOUSTON 2,SOUTH HOUSTON 2 2,Coast,69,1.01921,70.325,-27.36,45.8,11.7,,569,,,0,0,1,PQ,0,0,0,1,12
260117,33.0383,-97.1094,5,FLOWER MOUND 2,FLOWER MOUND 2 2,North Central,69,1.01155,69.797,-29.63,45.8,8.8,,4648,,,0,0,1,PQ,0,0,0,2,27
200032,26.2181,-98.3258,4,MISSION 3,MISSION 3 1,South,138,1.03872,143.344,26.66,45.8,12.1,,3167,,,0,0,1,PQ,0,0,0,2,21
140188,30.435,-97.6813,6,ROUND ROCK 5,ROUND ROCK 5 1,South Central,69,0.99278,68.502,-8.33,45.8,20.9,,1730,,,0,0,1,PQ,0,0,0,1,15
190097,35.2464,-101.742,2,AMARILLO 20,AMARILLO 20 1,North,138,1.0356,142.912,43.13,45.7,7.06,,3091,,,0,0,1,PQ,0,0,0,1,20
170238,33.039,-97.0079,5,LEWISVILLE 1,LEWISVILLE 1 2,North Central,69,1.00116,69.08,-32.14,45.6,10.46,,2626,,,0,0,1,PQ,0,0,0,1,18
130040,32.6116,-96.6815,5,WILMER 2,WILMER 2 2,North Central,69,1.01427,69.984,-26.81,45.6,14.2,,1312,,,0,0,1,PQ,0,0,0,1,14
110533,29.7333,-95.0908,7,DEER PARK 2,DEER PARK 2 1,Coast,69,1.01897,70.309,-27,45.6,7.5,,368,,,0,0,1,PQ,0,0,0,1,12
111043,29.9039,-95.5828,7,CYPRESS 49,CYPRESS 49 2,Coast,69,1.02328,70.607,-24.88,45.5,10.3,,740,,,0,0,1,PQ,0,0,0,1,12
150345,32.6714,-97.3907,5,CROWLEY 9,CROWLEY 9 2,North Central,69,1.01695,70.169,-19.16,45.4,10.3,,2106,,,0,0,1,PQ,0,0,0,1,16
140127,30.4331,-97.7477,6,CEDAR PARK 6,CEDAR PARK 6 1,South Central,69,0.98625,68.051,-9.27,45.2,12.8,,1686,,,0,0,1,PQ,0,0,0,1,15
260176,32.7217,-97.0866,5,GRAND PRAIRIE 23,GRAND PRAIRIE 23 2,North Central,69,1.01294,69.893,-25.97,45.1,14.8,,4691,,,0,0,1,PQ,0,0,0,2,27
250292,31.7453,-95.6174,8,PALESTINE 4,PALESTINE 4 1,East,138,1.03769,143.202,-13.1,45,16.87,,4505,,,0,0,1,PQ,0,0,0,2,26
130046,32.7837,-96.8934,5,DALLAS 1,DALLAS 1 1,North Central,69,1.00704,69.486,-30.66,44.8,9.36,,1317,,,0,0,1,PQ,0,0,0,1,14
130004,32.1818,-96.3815,5,POWELL 1,POWELL 1 1,North Central,138,1.02741,141.783,-11.65,44.7,8.64,,1279,,0,0,0,1,PQ,0,0,0,1,14
260050,32.8021,-96.976,5,GRAND PRAIRIE 13,GRAND PRAIRIE 13 2,North Central,69,0.99749,68.827,-29.27,44.6,14.98,,4597,,,0,0,1,PQ,0,0,0,2,27
140095,30.2815,-97.6683,6,AUSTIN 28,AUSTIN 28 1,South Central,69,1.00418,69.289,-9.61,44.6,17.6,,1658,,,0,0,1,PQ,0,0,0,1,15
170211,33.1458,-96.8199,5,FRISCO 2,FRISCO 2 2,North Central,69,1.0092,69.635,-31.14,44.6,10.1,,2605,,,0,0,1,PQ,0,0,0,1,18
210187,31.0637,-97.6545,5,HARKER HEIGHTS 4,HARKER HEIGHTS 4 2,North Central,69,1.01338,69.923,-5.1,44.4,14.9,,3466,,,0,0,1,PQ,0,0,0,2,22
150284,32.8614,-97.337,5,KELLER 12,KELLER 12 2,North Central,69,1.00481,69.332,-22.12,44.3,12.45,,2068,,,0,0,1,PQ,0,0,0,1,16
110696,29.801,-95.3895,7,HOUSTON 10,HOUSTON 10 2,Coast,69,1.00332,69.229,-28.66,44.3,10.7,,511,,,0,0,1,PQ,0,0,0,1,12
110952,29.623,-95.7488,7,RICHMOND 17,RICHMOND 17 2,Coast,69,1.02143,70.478,-21.97,44.3,14.3,,687,,,0,0,1,PQ,0,0,0,1,12
110776,29.7155,-95.3601,7,HOUSTON 26,HOUSTON 26 1,Coast,69,1.03414,71.355,-29.26,44.1,12.8,,564,,198.17,0,0,1,PQ,0,0,0,1,12
150273,32.9063,-97.3005,5,KELLER 10,KELLER 10 2,North Central,69,1.01895,70.308,-24.72,44.1,6.5,,2059,,,0,0,1,PQ,0,0,0,1,16
260186,32.0095,-97.1146,5,HILLSBORO 2,HILLSBORO 2 2,North Central,138,1.03114,142.297,-3.58,44,3.8,,4699,,,0,0,1,PQ,0,0,0,2,27
130078,32.7833,-96.5784,5,SUNNYVALE 2,SUNNYVALE 2 1,North Central,69,1.02822,70.947,-27.94,44,10.6,,1343,,,0,0,1,PQ,0,0,0,1,14
120337,29.3631,-98.4249,6,SAN ANTONIO 35,SAN ANTONIO 35 2,South Central,69,1.02391,70.65,2.8,44,10.8,,1179,,,0,0,1,PQ,0,0,0,1,13
240162,32.4523,-99.7022,3,ABILENE 4,ABILENE 4 1,West,138,1.03396,142.687,14.07,43.9,12.7,,4155,,,0,0,1,PQ,0,0,0,2,25
260114,33.0651,-97.0583,5,LAKE DALLAS 5,LAKE DALLAS 5 2,North Central,69,1.02341,70.615,-31.56,43.9,13.4,,4646,,,0,0,1,PQ,0,0,0,2,27
170282,32.9778,-96.7127,5,RICHARDSON 8,RICHARDSON 8 2,North Central,69,1.01766,70.219,-32.49,43.9,6.4,,2660,,,0,0,1,PQ,0,0,0,1,18
110988,30.1322,-95.4673,7,SPRING 21,SPRING 21 2,Coast,69,0.99341,68.546,-25.62,43.9,13.6,,702,,,0,0,1,PQ,0,0,0,1,12
160158,27.7204,-97.3735,4,CORPUS CHRISTI 23,CORPUS CHRISTI 23 1,South,138,1.02199,141.035,20.96,43.9,10.7,,2371,,,0,0,1,PQ,0,0,0,1,17
260183,32.7544,-97.0588,5,GRAND PRAIRIE 24,GRAND PRAIRIE 24 1,North Central,69,1.01446,69.998,-28.86,43.9,14.2,,4697,,,0,0,1,PQ,0,0,0,2,27
120331,29.3209,-98.4176,6,ELMENDORF 8,ELMENDORF 8 2,South Central,69,1.02385,70.646,2.33,43.9,6.47,,1174,,,0,0,1,PQ,0,0,0,1,13
130117,32.8509,-96.9526,5,IRVING 2,IRVING 2 1,North Central,69,0.98873,68.222,-30.38,43.8,12.93,,1372,,,0,0,1,PQ,0,0,0,1,14
111173,29.703,-95.6407,7,SUGAR LAND 75,SUGAR LAND 75 3,Coast,69,1.01127,69.778,-22.93,43.8,13.3,,824,,,0,0,1,PQ,0,0,0,1,12
110318,29.744,-95.4347,7,BELLAIRE 4,BELLAIRE 4 2,Coast,69,0.99111,68.386,-26.68,43.7,4.5,,209,,,0,0,1,PQ,0,0,0,1,12
250314,31.5717,-94.6464,8,WODEN 3,WODEN 3 1,East,138,1.03381,142.665,-10.94,43.7,11.44,,4523,,,0,0,1,PQ,0,0,0,2,26
260159,32.9407,-97.0784,5,GRAPEVINE 4,GRAPEVINE 4 2,North Central,69,1.00812,69.56,-29.33,43.6,16.55,,4677,,,0,0,1,PQ,0,0,0,2,27
120316,29.5336,-98.695,6,HELOTES 12,HELOTES 12 2,South Central,69,1.01764,70.217,-0.16,43.5,15.7,,1165,,,0,0,1,PQ,0,0,0,1,13
110408,29.7936,-95.1364,7,CHANNELVIEW 1,CHANNELVIEW 1 1,Coast,69,1.01681,70.16,-26.72,43.5,9,,277,,,0,0,1,PQ,0,0,0,1,12
111003,29.7893,-95.4727,7,BELLAIRE 33,BELLAIRE 33 2,Coast,69,1.01136,69.784,-26.24,43.4,4.9,,711,,,0,0,1,PQ,0,0,0,1,12
230256,30.7172,-95.5481,7,HUNTSVILLE 6,HUNTSVILLE 6 1,Coast,138,1.0382,143.271,-13.65,43.4,8,,3990,,,0,0,1,PQ,0,0,0,2,24
130155,32.906,-96.8423,5,ADDISON 5,ADDISON 5 2,North Central,69,0.99601,68.725,-33.89,43.3,14.8,,1397,,,0,0,1,PQ,0,0,0,1,14
170428,33.1555,-97.0928,5,DENTON 3,DENTON 3 2,North Central,69,1.02188,70.509,-26.53,43.3,9.3,,2786,,,0,0,1,PQ,0,0,0,1,18
110175,29.8543,-95.3327,7,HOUSTON 2,HOUSTON 2 2,Coast,69,1.00459,69.317,-28.23,43.1,11.7,,81,,,0,0,1,PQ,0,0,0,1,12
120320,29.5257,-98.6532,6,HELOTES 14,HELOTES 14 2,South Central,69,1.01645,70.135,-0.53,43,12.5,,1167,,,0,0,1,PQ,0,0,0,1,13
130088,32.797,-96.6601,5,MESQUITE 6,MESQUITE 6 1,North Central,69,1.02564,70.769,-30.27,42.9,13.58,,1351,,,0,0,1,PQ,0,0,0,1,14
140296,30.6701,-98.4056,3,KINGSLAND 3,KINGSLAND 3 1,West,138,1.03093,142.269,-0.57,42.8,4.82,,1802,,,0,0,1,PQ,0,0,0,1,15
120413,29.3576,-98.5519,6,LACKLAND A F B 18,LACKLAND A F B 18 1,South Central,69,1.01617,70.116,0.92,42.8,5.4,,1234,,,0,0,1,PQ,0,0,0,1,13
110576,29.8188,-95.7466,7,KATY 74,KATY 74 2,Coast,69,1.03461,71.388,-23.78,42.8,13.8,,402,,,0,0,1,PQ,0,0,0,1,12
111161,29.6717,-95.5889,7,STAFFORD 21,STAFFORD 21 2,Coast,69,1.0041,69.283,-23.21,42.8,13.4,,816,,,0,0,1,PQ,0,0,0,1,12
130128,32.9148,-96.9587,5,COPPELL 2,COPPELL 2 1,North Central,69,0.99764,68.837,-32.17,42.8,11.46,,1379,,,0,0,1,PQ,0,0,0,1,14
170110,33.1757,-96.6011,5,MCKINNEY 2,MCKINNEY 2 1,North Central,69,1.01973,70.362,-31.26,42.8,13,,2532,,,0,0,1,PQ,0,0,0,1,18
110366,30.3177,-95.4587,7,CONROE 10,CONROE 10 2,Coast,69,1.02304,70.59,-26.29,42.8,8.8,,245,,,0,0,1,PQ,0,0,0,1,12
110993,29.8155,-95.5285,7,BELLAIRE 26,BELLAIRE 26 2,Coast,69,1.01188,69.819,-25.87,42.7,15.3,,704,,,0,0,1,PQ,0,0,0,1,12
140200,30.1969,-97.8189,6,MANCHACA 3,MANCHACA 3 2,South Central,69,1.01722,70.189,-9.41,42.7,6.3,,1739,,,0,0,1,PQ,0,0,0,1,15
130136,32.9977,-96.9833,5,COPPELL 6,COPPELL 6 1,North Central,69,1.03044,71.101,-34.05,42.7,6.48,,1385,,41.41,0,0,1,PQ,0,0,0,1,14
210124,31.5882,-97.1098,5,WACO 1,WACO 1 1,North Central,69,1.02402,70.658,-6.22,42.6,16.9,,3420,,,0,0,1,PQ,0,0,0,2,22
150227,32.8007,-97.2283,5,HALTOM CITY 5,HALTOM CITY 5 2,North Central,69,1.01835,70.266,-23.52,42.6,14.78,,2025,,,0,0,1,PQ,0,0,0,1,16
190102,35.1993,-101.806,2,AMARILLO 25,AMARILLO 25 1,North,138,1.04138,143.71,42.17,42.6,13.5,,3096,,,0,0,1,PQ,0,0,0,1,20
150347,32.6322,-97.3895,5,CROWLEY 10,CROWLEY 10 2,North Central,69,1.03595,71.481,-17.83,42.6,4.9,,2107,,,0,0,1,PQ,0,0,0,1,16
170435,33.1298,-97.041,5,LAKE DALLAS 4,LAKE DALLAS 4 2,North Central,69,1.01694,70.169,-27.83,42.5,14.5,,2789,,,0,0,1,PQ,0,0,0,1,18
150212,32.6938,-97.3342,5,FORT WORTH 11,FORT WORTH 11 2,North Central,69,1.01028,69.709,-20.79,42.5,15.7,,2014,,,0,0,1,PQ,0,0,0,1,16
110425,29.745,-95.1721,7,GALENA PARK 5,GALENA PARK 5 1,Coast,69,1.00659,69.455,-27.73,42.4,9.3,,287,,,0,0,1,PQ,0,0,0,1,12
120405,29.3928,-98.5003,6,SAN ANTONIO 55,SAN ANTONIO 55 1,South Central,69,1.01917,70.323,0.87,42.4,5.1,,1228,,,0,0,1,PQ,0,0,0,1,13
130112,32.7028,-96.8402,5,DUNCANVILLE 10,DUNCANVILLE 10 1,North Central,69,1.01754,70.21,-27.87,42.4,6.25,,1368,,,0,0,1,PQ,0,0,0,1,14
190087,35.1757,-101.92,2,AMARILLO 14,AMARILLO 14 1,North,138,1.04021,143.549,42,42.3,12.8,,3081,,,0,0,1,PQ,0,0,0,1,20
110794,29.7494,-95.3689,7,HOUSTON 34,HOUSTON 34 2,Coast,69,1.01814,70.252,-28.43,42.3,10.3,,578,,,0,0,1,PQ,0,0,0,1,12
110792,29.7494,-95.3689,7,HOUSTON 33,HOUSTON 33 1,Coast,69,1.01817,70.254,-28.44,42.3,12.5,,577,,,0,0,1,PQ,0,0,0,1,12
200134,26.204,-98.2234,4,MCALLEN 10,MCALLEN 10 1,South,138,1.0445,144.142,27.07,42.3,11.8,,3267,,,0,0,1,PQ,0,0,0,2,21
250303,31.6045,-94.6571,8,NACOGDOCHES 5,NACOGDOCHES 5 1,East,138,1.03397,142.688,-10.68,42.3,4.07,,4514,,,0,0,1,PQ,0,0,0,2,26
111111,29.6893,-95.2367,7,SOUTH HOUSTON 8,SOUTH HOUSTON 8 1,Coast,69,1.01004,69.693,-27.52,42.2,12.3,,785,,,0,0,1,PQ,0,0,0,1,12
140210,30.1957,-97.7906,6,AUSTIN 52,AUSTIN 52 1,South Central,69,1.0256,70.766,-10.19,42.2,12.8,,1746,,,0,0,1,PQ,0,0,0,1,15
160093,27.7531,-98.0707,4,ALICE 5,ALICE 5 2,South,138,1.03967,143.475,24.29,42.2,14.8,,2307,,,0,0,1,PQ,0,0,0,1,17
110771,29.7082,-95.3824,7,HOUSTON 24,HOUSTON 24 1,Coast,69,0.9875,68.138,-28.09,42.2,19.9,,562,,,0,0,1,PQ,0,0,0,1,12
250200,32.3721,-95.2907,8,TYLER 4,TYLER 4 1,East,138,1.03365,142.644,-12.69,42.2,18.2,,4420,,,0,0,1,PQ,0,0,0,2,26
170266,33.0238,-96.6951,5,PLANO 21,PLANO 21 1,North Central,69,0.99543,68.684,-33.63,42.1,13.9,,2647,,,0,0,1,PQ,0,0,0,1,18
110163,29.8442,-95.2724,7,GALENA PARK 1,GALENA PARK 1 2,Coast,69,1.0189,70.304,-27.26,42.1,12.6,,73,,,0,0,1,PQ,0,0,0,1,12
111001,29.7867,-95.5715,7,BELLAIRE 32,BELLAIRE 32 2,Coast,69,1.03032,71.092,-25.09,42.1,8.4,,710,,,0,0,1,PQ,0,0,0,1,12
210190,31.0846,-97.6711,5,HARKER HEIGHTS 5,HARKER HEIGHTS 5 1,North Central,69,1.0189,70.304,-4.55,42.1,12.3,,3467,,,0,0,1,PQ,0,0,0,2,22
130304,32.3154,-96.6034,5,ENNIS 3,ENNIS 3 1,North Central,138,1.03863,143.331,-19.63,42,12.46,,1526,,132.04,0,0,1,PQ,0,0,0,1,14
120001,29.253,-99.7543,3,KNIPPA 1,KNIPPA 1 1,West,138,1.03988,143.504,12.64,42,7.3,,882,,,0,0,1,PQ,0,0,0,1,13
111040,29.9256,-95.6183,7,CYPRESS 48,CYPRESS 48 1,Coast,69,1.02184,70.507,-25.44,41.9,3.01,,738,,,0,0,1,PQ,0,0,0,1,12
210215,31.4689,-97.2091,5,HEWITT 5,HEWITT 5 2,North Central,69,1.01759,70.214,-5.31,41.9,11.58,,3485,,,0,0,1,PQ,0,0,0,2,22
140187,30.4578,-97.6451,6,ROUND ROCK 4,ROUND ROCK 4 3,South Central,69,1.00542,69.374,-6.98,41.8,6.6,,1729,,,0,0,1,PQ,0,0,0,1,15
150154,32.87,-97.5218,5,AZLE 1,AZLE 1 3,North Central,69,1.01913,70.32,-18.39,41.8,14.2,,1969,,,0,0,1,PQ,0,0,0,1,16
150271,32.9154,-97.2428,5,KELLER 9,KELLER 9 2,North Central,69,1.02022,70.395,-25.12,41.8,8.4,,2058,,,0,0,1,PQ,0,0,0,1,16
110994,29.7719,-95.5678,7,BELLAIRE 27,BELLAIRE 27 1,Coast,69,1.03975,71.743,-25.61,41.8,5.4,,705,,80.12,0,0,1,PQ,0,0,0,1,12
150312,32.7598,-97.4668,5,NAVAL AIR STATION_ JRB 12,NAVAL AIR STATION_ JRB 12 2,North Central,69,1.03392,71.341,-17.07,41.6,8.73,,2083,,,0,0,1,PQ,0,0,0,1,16
140092,30.2283,-97.7353,6,AUSTIN 26,AUSTIN 26 2,South Central,69,1.0161,70.111,-9.31,41.6,4.25,,1656,,,0,0,1,PQ,0,0,0,1,15
240125,32.7676,-99.8272,3,ANSON 1,ANSON 1 1,West,138,1.0236,141.257,14.89,41.5,9.28,,4118,,,0,0,1,PQ,0,0,0,2,25
111106,29.6971,-95.1736,7,PASADENA 3,PASADENA 3 2,Coast,69,1.01899,70.31,-26.92,41.5,14.9,,780,,,0,0,1,PQ,0,0,0,1,12
260055,32.8208,-97.0039,5,GRAND PRAIRIE 17,GRAND PRAIRIE 17 1,North Central,69,0.97722,67.428,-31.73,41.5,7,,4602,,,0,0,1,PQ,0,0,0,2,27
210185,31.0888,-97.7941,5,FORT HOOD 4,FORT HOOD 4 2,North Central,69,1.02782,70.92,-3.98,41.5,14.2,,3465,,,0,0,1,PQ,0,0,0,2,22
110128,29.1978,-96.2768,7,EL CAMPO 3,EL CAMPO 3 1,Coast,138,1.02445,141.374,-7.2,41.4,6.7,,40,,,0,0,1,PQ,0,0,0,1,12
110706,29.8009,-95.3609,7,HOUSTON 15,HOUSTON 15 1,Coast,69,0.99971,68.98,-28.96,41.4,9.7,,516,,,0,0,1,PQ,0,0,0,1,12
260045,32.6565,-97.0267,5,CEDAR HILL 2,CEDAR HILL 2 2,North Central,69,1.01113,69.768,-26.01,41.4,11.7,,4594,,,0,0,1,PQ,0,0,0,2,27
150317,32.7181,-97.4247,5,NAVAL AIR STATION_ JRB 15,NAVAL AIR STATION_ JRB 15 2,North Central,69,1.03265,71.253,-21.84,41.2,7.9,,2087,,,0,0,1,PQ,0,0,0,1,16
111037,29.9641,-95.5694,7,CYPRESS 45,CYPRESS 45 3,Coast,69,1.01472,70.016,-23.97,41.2,10,,735,,,0,0,1,PQ,0,0,0,1,12
130016,32.2808,-96.5755,5,ENNIS 1,ENNIS 1 1,North Central,138,1.03304,142.559,-20.44,41.1,16.6,,1291,,,0,0,1,PQ,0,0,0,1,14
150248,33.0452,-97.3087,5,JUSTIN 2,JUSTIN 2 2,North Central,69,1.01943,70.34,-24.46,41,4.89,,2043,,,0,0,1,PQ,0,0,0,1,16
110869,29.8533,-95.1033,7,HIGHLANDS 4,HIGHLANDS 4 2,Coast,69,1.02182,70.506,-26.51,41,11.3,,634,,,0,0,1,PQ,0,0,0,1,12
111155,29.7402,-95.5762,7,STAFFORD 19,STAFFORD 19 2,Coast,69,1.01677,70.157,-24.57,41,8.8,,814,,,0,0,1,PQ,0,0,0,1,12
120391,29.5198,-98.3081,6,UNIVERSAL CITY 10,UNIVERSAL CITY 10 2,South Central,69,1.00808,69.557,-0.66,41,14.3,,1218,,,0,0,1,PQ,0,0,0,1,13
110942,29.5802,-95.7621,7,RICHMOND 15,RICHMOND 15 2,Coast,69,1.01726,70.191,-20.97,41,14.3,,681,,,0,0,1,PQ,0,0,0,1,12
110406,29.7303,-94.9458,7,BAYTOWN 8,BAYTOWN 8 1,Coast,69,1.00488,69.336,-24.9,40.8,4.89,,275,,,0,0,1,PQ,0,0,0,1,12
170305,32.9919,-96.7168,5,RICHARDSON 20,RICHARDSON 20 1,North Central,69,1.0142,69.98,-33.04,40.8,3.61,,2676,,,0,0,1,PQ,0,0,0,1,18
170167,32.9278,-96.6124,5,GARLAND 6,GARLAND 6 1,North Central,69,1.03578,71.469,-32.54,40.8,12.9,,2578,,20.6,0,0,1,PQ,0,0,0,1,18
170178,32.9104,-96.5694,5,ROWLETT 3,ROWLETT 3 2,North Central,69,1.01653,70.141,-28.13,40.8,12.6,,2585,,,0,0,1,PQ,0,0,0,1,18
130278,32.8327,-96.8577,5,DALLAS 30,DALLAS 30 1,North Central,69,0.98321,67.841,-26.79,40.6,12.96,,1506,,,0,0,1,PQ,0,0,0,1,14
120152,30.0573,-99.1454,3,KERRVILLE 4,KERRVILLE 4 2,West,138,1.03467,142.784,3.89,40.5,10.5,,1029,,,0,0,1,PQ,0,0,0,1,13
110332,29.7131,-95.4398,7,BELLAIRE 15,BELLAIRE 15 2,Coast,69,0.99949,68.965,-26.63,40.4,8.8,,220,,,0,0,1,PQ,0,0,0,1,12
130151,32.8734,-96.8524,5,ADDISON 3,ADDISON 3 1,North Central,69,0.9998,68.986,-32.43,40.4,15.5,,1395,,,0,0,1,PQ,0,0,0,1,14
111157,29.7062,-95.5817,7,STAFFORD 20,STAFFORD 20 2,Coast,69,0.9998,68.986,-23.83,40.3,8.7,,815,,,0,0,1,PQ,0,0,0,1,12
150124,32.7634,-98.9242,5,BRECKENRIDGE 1,BRECKENRIDGE 1 1,North Central,138,1.0306,142.223,2.45,40.3,11.68,,1949,,,0,0,1,PQ,0,0,0,1,16
140203,30.2316,-97.8355,6,AUSTIN 49,AUSTIN 49 1,South Central,69,1.02872,70.982,-10.02,40.3,8.3,,1740,,105.4,0,0,1,PQ,0,0,0,1,15
210253,31.0695,-97.3845,5,LITTLE RIVER ACADEMY 2,LITTLE RIVER ACADEMY 2 2,North Central,69,1.02076,70.432,-3.99,40.3,8.8,,3518,,,0,0,1,PQ,0,0,0,2,22
110170,29.8915,-95.3343,7,HUMBLE 4,HUMBLE 4 2,Coast,69,1.0255,70.76,-27.96,40.2,11,,78,,,0,0,1,PQ,0,0,0,1,12
150287,32.7963,-97.3893,5,NAVAL AIR STATION_ JRB 3,NAVAL AIR STATION_ JRB 3 2,North Central,69,1.01658,70.144,-21.15,40.1,2.11,,2070,,,0,0,1,PQ,0,0,0,1,16
170513,32.7502,-96.2808,5,TERRELL 9,TERRELL 9 2,North Central,138,1.03055,142.216,-21.75,40.1,17.2,,2860,,,0,0,1,PQ,0,0,0,1,18
140270,30.6466,-97.6798,6,GEORGETOWN 1,GEORGETOWN 1 1,South Central,69,0.99837,68.888,-6.88,40.1,10.2,,1786,,,0,0,1,PQ,0,0,0,1,15
110744,29.995,-95.2578,7,HUMBLE 9,HUMBLE 9 3,Coast,69,1.01818,70.255,-25.73,40.1,1.43,,543,,,0,0,1,PQ,0,0,0,1,12
110751,30.0008,-95.1518,7,HUFFMAN 2,HUFFMAN 2 2,Coast,69,1.0142,69.98,-27.12,40,0.9,,546,,,0,0,1,PQ,0,0,0,1,12
260030,32.6885,-97.0125,5,GRAND PRAIRIE 4,GRAND PRAIRIE 4 1,North Central,69,0.99808,68.868,-27.26,40,6.2,,4586,,,0,0,1,PQ,0,0,0,2,27
130052,32.7468,-96.8185,5,DALLAS 5,DALLAS 5 2,North Central,69,1.02607,70.799,-28.04,39.8,10.9,,1322,,,0,0,1,PQ,0,0,0,1,14
170194,33.0955,-96.6288,5,ALLEN 6,ALLEN 6 2,North Central,69,1.00144,69.099,-29.63,39.8,10.3,,2596,,,0,0,1,PQ,0,0,0,1,18
120253,29.4007,-98.7038,6,LACKLAND A F B 4,LACKLAND A F B 4 2,South Central,69,1.01763,70.216,1.55,39.7,8,,1117,,,0,0,1,PQ,0,0,0,1,13
120431,29.6094,-98.2709,6,CIBOLO 7,CIBOLO 7 1,South Central,69,0.99716,68.804,-1.48,39.6,15.9,,1248,,,0,0,1,PQ,0,0,0,1,13
110407,29.7694,-95.2303,7,GALENA PARK 2,GALENA PARK 2 1,Coast,69,0.99954,68.968,-28.46,39.5,14.1,,276,,,0,0,1,PQ,0,0,0,1,12
150223,32.8186,-97.2731,5,HALTOM CITY 4,HALTOM CITY 4 2,North Central,69,1.02402,70.658,-23.11,39.5,9.85,,2022,,,0,0,1,PQ,0,0,0,1,16
260077,32.6008,-97.1196,5,MANSFIELD 5,MANSFIELD 5 2,North Central,69,1.00503,69.347,-20.87,39.4,9.6,,4620,,,0,0,1,PQ,0,0,0,2,27
200008,26.173,-98.0562,4,DONNA 2,DONNA 2 1,South,138,1.03569,142.925,27.49,39.4,8.9,,3144,,,0,0,1,PQ,0,0,0,2,21
110416,29.772,-95.1631,7,CHANNELVIEW 4,CHANNELVIEW 4 1,Coast,69,1.01609,70.111,-27.04,39.4,7.8,,281,,,0,0,1,PQ,0,0,0,1,12
111097,29.6848,-95.2062,7,PASADENA 1,PASADENA 1 2,Coast,69,1.01649,70.138,-26.76,39.4,7.8,,776,,,0,0,1,PQ,0,0,0,1,12
170198,33.0281,-96.614,5,ALLEN 7,ALLEN 7 2,North Central,69,1.01285,69.886,-28.88,39.4,14.1,,2597,,,0,0,1,PQ,0,0,0,1,18
130103,32.8077,-96.6902,5,MESQUITE 10,MESQUITE 10 2,North Central,69,1.02794,70.928,-30.4,39.4,13.8,,1362,,,0,0,1,PQ,0,0,0,1,14
260032,32.6963,-97.0386,5,GRAND PRAIRIE 6,GRAND PRAIRIE 6 1,North Central,69,0.99285,68.506,-26.38,39.3,17.5,,4588,,,0,0,1,PQ,0,0,0,2,27
260048,32.8514,-96.9792,5,IRVING 6,IRVING 6 2,North Central,69,0.99502,68.656,-29.38,39.2,15.9,,4596,,,0,0,1,PQ,0,0,0,2,27
111107,29.6679,-95.2676,7,SOUTH HOUSTON 6,SOUTH HOUSTON 6 1,Coast,69,1.00713,69.492,-27.31,38.9,13.6,,781,,,0,0,1,PQ,0,0,0,1,12
130050,32.7826,-96.85,5,DALLAS 4,DALLAS 4 1,North Central,69,1.02947,71.034,-29.71,38.9,11.88,,1321,,,0,0,1,PQ,0,0,0,1,14
120417,29.586,-98.2916,6,UNIVERSAL CITY 13,UNIVERSAL CITY 13 3,South Central,69,1.00659,69.454,-0.75,38.9,9.13,,1236,,,0,0,1,PQ,0,0,0,1,13
260065,32.5613,-97.1327,5,MANSFIELD 1,MANSFIELD 1 2,North Central,69,1.00508,69.35,-20.5,38.8,9.43,,4610,,,0,0,1,PQ,0,0,0,2,27
140204,30.1978,-97.7678,6,AUSTIN 50,AUSTIN 50 1,South Central,69,1.03661,71.526,-10.09,38.8,5.7,,1741,,170.75,0,0,1,PQ,0,0,0,1,15
111168,29.6944,-95.6847,7,SUGAR LAND 73,SUGAR LAND 73 2,Coast,69,1.01104,69.762,-22.29,38.8,13.2,,822,,,0,0,1,PQ,0,0,0,1,12
150203,32.7181,-97.339,5,FORT WORTH 3,FORT WORTH 3 2,North Central,69,1.00493,69.34,-21.58,38.7,12.6,,2006,,,0,0,1,PQ,0,0,0,1,16
111034,29.9929,-95.6028,7,CYPRESS 44,CYPRESS 44 2,Coast,69,1.016,70.104,-24.21,38.7,13.8,,734,,,0,0,1,PQ,0,0,0,1,12
190081,35.1659,-101.85,2,AMARILLO 10,AMARILLO 10 1,North,138,1.04253,143.869,42.23,38.7,4.5,,3076,,,0,0,1,PQ,0,0,0,1,20
140294,30.6137,-97.6877,6,GEORGETOWN 5,GEORGETOWN 5 2,South Central,69,1.00208,69.143,-7.1,38.6,4.25,,1800,,,0,0,1,PQ,0,0,0,1,15
210176,31.0961,-97.7586,5,KILLEEN 4,KILLEEN 4 2,North Central,69,1.02644,70.825,-4.19,38.6,7.3,,3457,,,0,0,1,PQ,0,0,0,2,22
170285,32.9674,-96.7391,5,RICHARDSON 9,RICHARDSON 9 1,North Central,69,1.00911,69.628,-32.7,38.6,5.9,,2663,,,0,0,1,PQ,0,0,0,1,18
200124,26.1732,-98.263,4,MCALLEN 8,MCALLEN 8 1,South,138,1.04241,143.853,26.07,38.5,12.8,,3258,,,0,0,1,PQ,0,0,0,2,21
170273,32.9565,-96.759,5,RICHARDSON 3,RICHARDSON 3 1,North Central,69,1.03198,71.207,-34.77,38.5,7.85,,2653,,,0,0,1,PQ,0,0,0,1,18
270170,29.7099,-98.137,6,NEW BRAUNFELS 4,NEW BRAUNFELS 4 1,South Central,69,1.02126,70.467,-2.74,38.5,3.61,,4870,,,0,0,1,PQ,0,0,0,2,28
120402,29.4046,-98.5491,6,SAN ANTONIO 54,SAN ANTONIO 54 2,South Central,69,1.0222,70.532,-0.39,38.5,7.8,,1226,,,0,0,1,PQ,0,0,0,1,13
110330,29.7343,-95.4829,7,BELLAIRE 14,BELLAIRE 14 2,Coast,69,0.99811,68.87,-25.83,38.4,13.7,,219,,,0,0,1,PQ,0,0,0,1,12
110321,29.6924,-95.4736,7,BELLAIRE 7,BELLAIRE 7 1,Coast,69,0.99264,68.492,-25.81,38.4,11.8,,212,,,0,0,1,PQ,0,0,0,1,12
210131,31.5377,-97.1923,5,WACO 3,WACO 3 2,North Central,69,1.0253,70.745,-4.35,38.4,10.1,,3425,,,0,0,1,PQ,0,0,0,2,22
150262,32.9435,-97.2628,5,KELLER 5,KELLER 5 1,North Central,69,1.01564,70.079,-24.91,38.3,11.3,,2053,,,0,0,1,PQ,0,0,0,1,16
170283,32.9971,-96.6571,5,GARLAND 10,GARLAND 10 1,North Central,69,1.03226,71.226,-31.12,38.3,12.76,,2661,,0,0,0,1,PQ,0,0,0,1,18
170404,32.8942,-96.6705,5,GARLAND 66,GARLAND 66 1,North Central,69,1.0407,71.808,-32.45,38.2,6.93,,2763,,139.09,0,0,1,PQ,0,0,0,1,18
110996,29.8522,-95.5199,7,BELLAIRE 29,BELLAIRE 29 1,Coast,69,0.99945,68.962,-26.39,38.1,12.41,,707,,,0,0,1,PQ,0,0,0,1,12
110446,29.5364,-95.1231,7,WEBSTER 4,WEBSTER 4 2,Coast,69,1.00523,69.361,-26.59,38.1,1.88,,298,,,0,0,1,PQ,0,0,0,1,12
120370,29.5444,-98.5058,6,SAN ANTONIO 40,SAN ANTONIO 40 2,South Central,69,1.00873,69.603,-0.82,38.1,7.3,,1201,,,0,0,1,PQ,0,0,0,1,13
110962,30.0996,-95.6438,7,TOMBALL 23,TOMBALL 23 2,Coast,69,1.00019,69.013,-24.76,38.1,13,,691,,,0,0,1,PQ,0,0,0,1,12
120246,29.4331,-98.6792,6,LACKLAND A F B 1,LACKLAND A F B 1 2,South Central,69,1.01358,69.937,1.55,38.1,10,,1112,,,0,0,1,PQ,0,0,0,1,13
170278,32.9046,-96.6986,5,GARLAND 8,GARLAND 8 1,North Central,69,1.02245,70.549,-32.45,38,11.44,,2657,,,0,0,1,PQ,0,0,0,1,18
170241,33.026,-97.0104,5,LEWISVILLE 2,LEWISVILLE 2 1,North Central,69,0.99999,68.999,-32.36,38,10.13,,2629,,,0,0,1,PQ,0,0,0,1,18
110704,29.8024,-95.3188,7,HOUSTON 13,HOUSTON 13 2,Coast,69,1.00702,69.484,-28.12,38,2.18,,514,,,0,0,1,PQ,0,0,0,1,12
110166,29.9407,-95.2604,7,HUMBLE 2,HUMBLE 2 2,Coast,69,1.01908,70.317,-27.31,37.9,5.7,,75,,,0,0,1,PQ,0,0,0,1,12
110313,29.7154,-95.414,7,BELLAIRE 1,BELLAIRE 1 1,Coast,69,0.99476,68.638,-27.59,37.9,12.5,,205,,,0,0,1,PQ,0,0,0,1,12
110322,29.7517,-95.4719,7,BELLAIRE 8,BELLAIRE 8 1,Coast,69,0.99152,68.415,-26.49,37.9,11.2,,213,,,0,0,1,PQ,0,0,0,1,12
200121,26.1121,-98.2213,4,HIDALGO 3,HIDALGO 3 1,South,138,1.04637,144.399,25.54,37.9,11.9,,3255,,,0,0,1,PQ,0,0,0,2,21
130150,32.9244,-96.8636,5,ADDISON 2,ADDISON 2 1,North Central,69,0.99345,68.548,-34,37.8,9.33,,1394,,,0,0,1,PQ,0,0,0,1,14
120364,29.6114,-98.4868,6,SAN ANTONIO 38,SAN ANTONIO 38 2,South Central,69,1.02455,70.694,-1.74,37.8,5,,1196,,,0,0,1,PQ,0,0,0,1,13
110129,29.787,-95.928,7,BROOKSHIRE 1,BROOKSHIRE 1 1,Coast,138,1.03048,142.206,-19.01,37.7,8.26,,41,,,0,0,1,PQ,0,0,0,1,12
130097,32.7646,-96.6606,5,MESQUITE 8,MESQUITE 8 2,North Central,69,1.02443,70.686,-29.3,37.7,12.01,,1358,,,0,0,1,PQ,0,0,0,1,14
110945,29.5508,-95.7996,7,ROSENBERG 4,ROSENBERG 4 3,Coast,69,1.02286,70.578,-20.12,37.7,5.7,,682,,,0,0,1,PQ,0,0,0,1,12
260118,33.0171,-97.0749,5,FLOWER MOUND 3,FLOWER MOUND 3 1,North Central,69,1.04233,71.921,-32.11,37.7,10.4,,4649,,106.8,0,0,1,PQ,0,0,0,2,27
170114,33.2232,-96.6464,5,MCKINNEY 4,MCKINNEY 4 2,North Central,69,1.01455,70.004,-29.29,37.7,14,,2535,,,0,0,1,PQ,0,0,0,1,18
170134,33.2423,-96.6325,5,MCKINNEY 12,MCKINNEY 12 1,North Central,69,1.0081,69.559,-29.98,37.7,8.14,,2550,,,0,0,1,PQ,0,0,0,1,18
140148,30.3928,-97.7281,6,AUSTIN 43,AUSTIN 43 1,South Central,69,1.00191,69.132,-8,37.7,3.69,,1701,,,0,0,1,PQ,0,0,0,1,15
260168,32.7001,-97.0911,5,ARLINGTON 13,ARLINGTON 13 1,North Central,69,1.01323,69.913,-26.77,37.6,6.5,,4686,,,0,0,1,PQ,0,0,0,2,27
200083,26.2965,-98.156,4,EDINBURG 4,EDINBURG 4 1,South,138,1.03622,142.999,26.39,37.6,13.1,,3218,,,0,0,1,PQ,0,0,0,2,21
210134,31.5322,-97.1211,5,WACO 5,WACO 5 2,North Central,69,1.02488,70.717,-5.27,37.6,6.1,,3427,,,0,0,1,PQ,0,0,0,2,22
150308,32.6726,-97.4684,5,CROWLEY 3,CROWLEY 3 2,North Central,69,1.02168,70.496,-19.16,37.5,3.69,,2082,,,0,0,1,PQ,0,0,0,1,16
260023,32.6594,-97.2118,5,KENNEDALE 10,KENNEDALE 10 2,North Central,69,1.01645,70.135,-21.86,37.4,0.75,,4580,,,0,0,1,PQ,0,0,0,2,27
140102,30.3606,-97.979,6,SPICEWOOD 4,SPICEWOOD 4 2,South Central,69,1.00848,69.585,-8.66,37.3,8.1,,1663,,,0,0,1,PQ,0,0,0,1,15
110702,29.8231,-95.4258,7,HOUSTON 12,HOUSTON 12 2,Coast,69,0.99507,68.66,-27.91,37.3,11.8,,513,,,0,0,1,PQ,0,0,0,1,12
110320,29.7357,-95.5124,7,BELLAIRE 6,BELLAIRE 6 1,Coast,69,1.00836,69.577,-25.87,37.3,12.6,,211,,,0,0,1,PQ,0,0,0,1,12
210285,31.1155,-97.8985,3,KEMPNER 4,KEMPNER 4 1,West,138,1.03047,142.205,-2.37,37.3,13.4,,3543,,,0,0,1,PQ,0,0,0,2,22
260025,32.6949,-97.1904,5,KENNEDALE 11,KENNEDALE 11 2,North Central,69,1.00927,69.64,-22.72,37.2,7.6,,4581,,,0,0,1,PQ,0,0,0,2,27
170463,33.5967,-96.1755,2,BONHAM 4,BONHAM 4 2,North,138,1.04418,144.097,-17.36,37.2,12.28,,2813,,,0,0,1,PQ,0,0,0,1,18
170274,32.9293,-96.7211,5,RICHARDSON 4,RICHARDSON 4 1,North Central,69,1.02661,70.836,-32.4,37.1,13.3,,2654,,,0,0,1,PQ,0,0,0,1,18
220068,31.5509,-102.91,1,MONAHANS 1,MONAHANS 1 1,Far West,138,1.03475,142.796,24.01,37.01,2.03,,3649,,10.49,0,0,1,PQ,0,0,0,2,23
150290,32.8208,-97.43,5,NAVAL AIR STATION_ JRB 5,NAVAL AIR STATION_ JRB 5 2,North Central,69,1.01063,69.734,-21.03,37,3.16,,2072,,,0,0,1,PQ,0,0,0,1,16
130275,32.8164,-96.839,5,DALLAS 27,DALLAS 27 1,North Central,69,0.98495,67.962,-26.57,37,7.93,,1503,,,0,0,1,PQ,0,0,0,1,14
170494,33.1227,-96.1334,5,GREENVILLE 5,GREENVILLE 5 1,North Central,138,1.03063,142.227,-22.72,37,7.26,,2842,,,0,0,1,PQ,0,0,0,1,18
111041,29.9738,-95.5397,7,TOMBALL 24,TOMBALL 24 1,Coast,69,1.00201,69.139,-26.04,36.9,13.2,,739,,,0,0,1,PQ,0,0,0,1,12
210193,31.6372,-97.1077,5,ELM MOTT 1,ELM MOTT 1 2,North Central,69,1.02541,70.753,-4.53,36.9,12.4,,3469,,,0,0,1,PQ,0,0,0,2,22
150376,32.2214,-98.2184,5,STEPHENVILLE 5,STEPHENVILLE 5 2,North Central,138,1.0438,144.044,-1.93,36.8,14.4,,2133,,,0,0,1,PQ,0,0,0,1,16
110691,29.7717,-95.4135,7,HOUSTON 6,HOUSTON 6 1,Coast,69,0.99242,68.477,-28.29,36.8,10.5,,507,,,0,0,1,PQ,0,0,0,1,12
200040,26.2741,-98.2492,4,MCALLEN 3,MCALLEN 3 1,South,138,1.0483,144.666,25.63,36.8,5.1,,3175,,82.36,0,0,1,PQ,0,0,0,2,21
111032,30.006,-95.5991,7,CYPRESS 43,CYPRESS 43 1,Coast,69,1.01165,69.804,-24.4,36.8,5.3,,733,,,0,0,1,PQ,0,0,0,1,12
110853,29.8548,-95.4794,7,HOUSTON 46,HOUSTON 46 2,Coast,69,1.00098,69.067,-27.03,36.8,10.95,,624,,,0,0,1,PQ,0,0,0,1,12
260029,32.6611,-97.0352,5,CEDAR HILL 1,CEDAR HILL 1 1,North Central,69,0.99425,68.603,-25.46,36.8,11.14,,4585,,,0,0,1,PQ,0,0,0,2,27
260056,32.8545,-97.0029,5,IRVING 8,IRVING 8 1,North Central,69,0.97866,67.528,-31.68,36.7,9.36,,4603,,,0,0,1,PQ,0,0,0,2,27
200099,25.9088,-97.4411,4,BROWNSVILLE 2,BROWNSVILLE 2 1,South,138,1.04498,144.208,28.62,36.7,4.9,,3234,,,0,0,1,PQ,0,0,0,2,21
240185,31.4646,-100.451,3,GOODFELLOW AFB 11,GOODFELLOW AFB 11 1,West,138,1.03934,143.429,20.54,36.6,10,,4172,,,0,0,1,PQ,0,0,0,2,25
120387,29.5091,-98.3768,6,CONVERSE 3,CONVERSE 3 1,South Central,69,1.01379,69.951,-2.3,36.6,6.5,,1215,,,0,0,1,PQ,0,0,0,1,13
180010,27.554,-99.4869,4,LAREDO 6,LAREDO 6 1,South,138,1.03603,142.972,20.16,36.6,6.3,,2892,,,0,0,1,PQ,0,0,0,1,19
190067,34.5144,-102.355,2,DIMMITT 1,DIMMITT 1 1,North,138,1.01064,139.468,47.35,36.5,7.1,,3062,,,0,0,1,PQ,0,0,0,1,20
110837,29.9491,-95.4053,7,SPRING 9,SPRING 9 1,Coast,69,0.99922,68.946,-27.84,36.5,5.57,,610,,,0,0,1,PQ,0,0,0,1,12
260121,32.5822,-96.9346,5,CEDAR HILL 4,CEDAR HILL 4 3,North Central,69,1.0149,70.028,-24.94,36.5,10.5,,4650,,,0,0,1,PQ,0,0,0,2,27
110709,29.7949,-95.41,7,HOUSTON 18,HOUSTON 18 1,Coast,69,0.99866,68.908,-28.55,36.5,2.41,,519,,,0,0,1,PQ,0,0,0,1,12
210169,31.1067,-97.7255,5,KILLEEN 2,KILLEEN 2 2,North Central,69,1.02621,70.808,-4,36.5,7.7,,3453,,,0,0,1,PQ,0,0,0,2,22
170172,33.0139,-96.5836,5,SACHSE 2,SACHSE 2 1,North Central,69,1.00379,69.262,-29.52,36.4,6.8,,2581,,,0,0,1,PQ,0,0,0,1,18
260179,32.7726,-97.1195,5,HURST 7,HURST 7 1,North Central,69,1.04255,71.936,-26.54,36.4,12.4,,4694,,72.06,0,0,1,PQ,0,0,0,2,27
150144,32.7554,-97.2309,5,HALTOM CITY 2,HALTOM CITY 2 2,North Central,69,1.02061,70.422,-24.5,36.4,4.8,,1964,,,0,0,1,PQ,0,0,0,1,16
170249,33.0202,-96.7335,5,PLANO 9,PLANO 9 2,North Central,69,1.0116,69.8,-31.1,36.4,10.9,,2634,,,0,0,1,PQ,0,0,0,1,18
130108,32.7279,-96.801,5,DALLAS 20,DALLAS 20 1,North Central,69,1.02342,70.616,-28.06,36.4,8.4,,1365,,,0,0,1,PQ,0,0,0,1,14
150294,32.8722,-97.3699,5,KELLER 13,KELLER 13 2,North Central,69,1.02229,70.538,-21.05,36.4,8.7,,2073,,,0,0,1,PQ,0,0,0,1,16
170486,33.0971,-96.085,5,GREENVILLE 3,GREENVILLE 3 1,North Central,138,1.03124,142.312,-22.97,36.4,7.1,,2834,,,0,0,1,PQ,0,0,0,1,18
140131,30.4078,-97.6996,6,ROUND ROCK 1,ROUND ROCK 1 2,South Central,69,1.00618,69.426,-7.35,36.3,8.3,,1689,,,0,0,1,PQ,0,0,0,1,15
150368,32.8035,-98.0879,5,MINERAL WELLS 3,MINERAL WELLS 3 2,North Central,138,1.04151,143.729,-1.6,36.3,8.7,,2127,,,0,0,1,PQ,0,0,0,1,16
170120,33.2072,-96.7197,5,PROSPER 3,PROSPER 3 3,North Central,69,1.01828,70.261,-29.47,36.2,5.9,,2539,,,0,0,1,PQ,0,0,0,1,18
210173,31.1298,-97.7251,5,KILLEEN 3,KILLEEN 3 3,North Central,69,1.02973,71.051,-3.63,36.2,11.8,,3455,,,0,0,1,PQ,0,0,0,2,22
210230,31.5048,-97.2234,5,WOODWAY 5,WOODWAY 5 1,North Central,69,1.01289,69.889,-5.69,36.2,13.99,,3499,,,0,0,1,PQ,0,0,0,2,22
170485,33.1277,-96.1313,5,GREENVILLE 2,GREENVILLE 2 1,North Central,138,1.03096,142.273,-22.63,36.1,8.7,,2833,,,0,0,1,PQ,0,0,0,1,18
200129,26.1812,-98.1236,4,SAN JUAN 2,SAN JUAN 2 1,South,138,1.03353,142.627,27.2,36.1,12.7,,3262,,,0,0,1,PQ,0,0,0,2,21
110778,29.7784,-95.3029,7,HOUSTON 28,HOUSTON 28 1,Coast,69,1.00465,69.321,-28.47,36.1,5.9,,566,,,0,0,1,PQ,0,0,0,1,12
170221,33.1026,-96.8497,5,FRISCO 6,FRISCO 6 1,North Central,69,1.0228,70.573,-33.08,36.1,9.7,,2613,,,0,0,1,PQ,0,0,0,1,18
260027,32.7459,-97.203,5,HURST 1,HURST 1 1,North Central,69,1.0248,70.711,-24.98,36.1,11.7,,4583,,,0,0,1,PQ,0,0,0,2,27
110976,30.2087,-95.4341,7,CONROE 13,CONROE 13 2,Coast,69,1.00743,69.513,-26.33,36,12,,696,,,0,0,1,PQ,0,0,0,1,12
130129,32.9441,-96.9554,5,COPPELL 3,COPPELL 3 1,North Central,69,1.00345,69.238,-32.58,36,11.1,,1380,,,0,0,1,PQ,0,0,0,1,14
260144,32.8574,-97.1319,5,BEDFORD 3,BEDFORD 3 2,North Central,69,1.01938,70.337,-24.85,35.9,3.24,,4666,,,0,0,1,PQ,0,0,0,2,27
150340,32.6535,-97.3642,5,CROWLEY 8,CROWLEY 8 1,North Central,69,1.02603,70.796,-19.58,35.9,12.6,,2104,,,0,0,1,PQ,0,0,0,1,16
180024,27.4783,-99.4654,4,LAREDO 18,LAREDO 18 1,South,138,1.03535,142.878,20.74,35.8,11.7,,2905,,,0,0,1,PQ,0,0,0,1,19
120388,29.4685,-98.3691,6,CONVERSE 4,CONVERSE 4 1,South Central,69,1.0427,71.947,-2.36,35.8,1.2,,1216,,243.76,0,0,1,PQ,0,0,0,1,13
111163,29.6874,-95.5713,7,STAFFORD 23,STAFFORD 23 1,Coast,69,0.99836,68.887,-23.77,35.8,12.6,,818,,,0,0,1,PQ,0,0,0,1,12
110831,29.8922,-95.5387,7,CYPRESS 39,CYPRESS 39 2,Coast,69,1.00717,69.495,-25.89,35.7,9.15,,604,,,0,0,1,PQ,0,0,0,1,12
130130,32.9694,-96.974,5,COPPELL 4,COPPELL 4 1,North Central,69,0.99817,68.873,-32.27,35.7,4.64,,1381,,,0,0,1,PQ,0,0,0,1,14
270157,29.8929,-97.9107,6,SAN MARCOS 3,SAN MARCOS 3 2,South Central,69,1.00819,69.565,-4.02,35.7,10.4,,4860,,,0,0,1,PQ,0,0,0,2,28
130059,32.7522,-96.8903,5,DUNCANVILLE 4,DUNCANVILLE 4 1,North Central,69,0.9877,68.151,-30.31,35.7,14.59,,1328,,,0,0,1,PQ,0,0,0,1,14
210295,31.6801,-98.9674,5,EARLY 3,EARLY 3 1,North Central,138,1.02897,141.998,4.86,35.6,11.49,,3553,,,0,0,1,PQ,0,0,0,2,22
210258,31.068,-97.4635,5,BELTON 2,BELTON 2 2,North Central,69,1.01966,70.356,-4.47,35.6,10.2,,3521,,,0,0,1,PQ,0,0,0,2,22
210256,31.0896,-97.3492,5,TEMPLE 1,TEMPLE 1 1,North Central,69,1.01695,70.17,-4.09,35.6,10.4,,3520,,,0,0,1,PQ,0,0,0,2,22
170174,32.9309,-96.5239,5,ROWLETT 1,ROWLETT 1 2,North Central,69,1.01733,70.196,-26.75,35.6,5.1,,2582,,,0,0,1,PQ,0,0,0,1,18
120322,29.5049,-98.6863,6,HELOTES 15,HELOTES 15 2,South Central,69,1.01698,70.171,-0.12,35.6,10.3,,1168,,,0,0,1,PQ,0,0,0,1,13
130036,32.6938,-96.6457,5,BALCH SPRINGS 1,BALCH SPRINGS 1 2,North Central,69,1.02649,70.828,-27.26,35.6,6.1,,1310,,,0,0,1,PQ,0,0,0,1,14
140182,30.4688,-97.6602,6,ROUND ROCK 3,ROUND ROCK 3 1,South Central,69,0.99651,68.759,-7.7,35.6,8.5,,1727,,,0,0,1,PQ,0,0,0,1,15
110556,29.7001,-95.0723,7,LA PORTE 8,LA PORTE 8 1,Coast,69,1.02934,71.024,-28.01,35.5,7.13,,388,,,0,0,1,PQ,0,0,0,1,12
170287,32.9831,-96.6781,5,RICHARDSON 11,RICHARDSON 11 1,North Central,69,1.0042,69.29,-33.74,35.4,6.75,,2665,,,0,0,1,PQ,0,0,0,1,18
260167,32.7141,-97.1552,5,ARLINGTON 12,ARLINGTON 12 1,North Central,69,1.04604,72.177,-25.48,35.4,5.4,,4685,,158.88,0,0,1,PQ,0,0,0,2,27
130110,32.6689,-96.8377,5,DESOTO 1,DESOTO 1 2,North Central,69,1.01799,70.242,-27.65,35.4,6.3,,1366,,,0,0,1,PQ,0,0,0,1,14
110979,30.1086,-95.3947,7,SPRING 18,SPRING 18 1,Coast,69,0.97359,67.177,-27.92,35.4,4.25,,697,,,0,0,1,PQ,0,0,0,1,12
130077,32.7422,-96.5482,5,SUNNYVALE 1,SUNNYVALE 1 2,North Central,69,1.03197,71.206,-26.51,35.4,8.5,,1342,,,0,0,1,PQ,0,0,0,1,14
130288,32.7991,-96.7511,5,DALLAS 38,DALLAS 38 1,North Central,69,0.98801,68.173,-27.93,35.4,8.41,,1514,,,0,0,1,PQ,0,0,0,1,14
240140,32.3528,-99.5286,5,CLYDE 2,CLYDE 2 1,North Central,138,1.03036,142.19,12.22,35.3,11.81,,4133,,,0,0,1,PQ,0,0,0,2,25
130069,32.7324,-96.8815,5,DUNCANVILLE 7,DUNCANVILLE 7 2,North Central,69,1.00223,69.154,-29.26,35.3,12.69,,1336,,,0,0,1,PQ,0,0,0,1,14
111109,29.7031,-95.1861,7,PASADENA 4,PASADENA 4 1,Coast,69,1.01629,70.124,-27.3,35.3,11.5,,783,,,0,0,1,PQ,0,0,0,1,12
111016,29.8259,-95.4995,7,BELLAIRE 40,BELLAIRE 40 1,Coast,69,1.00285,69.197,-26.89,35.2,11.3,,721,,,0,0,1,PQ,0,0,0,1,12
240172,31.4439,-100.46,3,GOODFELLOW AFB 3,GOODFELLOW AFB 3 1,West,138,1.03855,143.32,20.63,35.2,4.5,,4162,,,0,0,1,PQ,0,0,0,2,25
110382,30.1751,-95.4954,7,TOMBALL 6,TOMBALL 6 2,Coast,69,1.01446,69.998,-26.09,35.2,6.6,,258,,,0,0,1,PQ,0,0,0,1,12
110900,29.2934,-94.8147,7,GALVESTON 5,GALVESTON 5 2,Coast,69,1.02725,70.88,-29.18,35.1,3.99,,653,,,0,0,1,PQ,0,0,0,1,12
170116,33.2192,-96.6136,5,MCKINNEY 6,MCKINNEY 6 1,North Central,69,1.00275,69.19,-29.87,35.1,10.8,,2537,,,0,0,1,PQ,0,0,0,1,18
140051,30.6079,-98.4274,3,KINGSLAND 2,KINGSLAND 2 1,West,138,1.03434,142.739,-0.74,35.1,2.94,,1624,,,0,0,1,PQ,0,0,0,1,15
111062,30.0438,-95.3535,7,SPRING 30,SPRING 30 2,Coast,69,0.97892,67.545,-27.81,35.1,11.9,,752,,,0,0,1,PQ,0,0,0,1,12
111044,30.014,-95.6326,7,CYPRESS 50,CYPRESS 50 1,Coast,69,1.0105,69.724,-24.63,35.1,8.7,,741,,,0,0,1,PQ,0,0,0,1,12
110315,29.7408,-95.4139,7,HOUSTON 4,HOUSTON 4 1,Coast,69,0.9915,68.414,-27.46,35,6.9,,207,,,0,0,1,PQ,0,0,0,1,12
110690,29.7534,-95.3885,7,HOUSTON 5,HOUSTON 5 1,Coast,69,1.01617,70.116,-28.66,35,10.3,,506,,,0,0,1,PQ,0,0,0,1,12
260074,32.6412,-97.1192,5,ARLINGTON 6,ARLINGTON 6 2,North Central,69,1.01858,70.282,-22.66,35,9,,4618,,,0,0,1,PQ,0,0,0,2,27
210167,31.1205,-97.6846,5,KILLEEN 1,KILLEEN 1 2,North Central,69,1.02746,70.895,-3.62,34.9,0.53,,3452,,,0,0,1,PQ,0,0,0,2,22
160153,27.6577,-97.3867,4,CORPUS CHRISTI 19,CORPUS CHRISTI 19 1,South,138,1.02415,141.333,21.89,34.9,9.3,,2366,,,0,0,1,PQ,0,0,0,1,17
130159,32.9086,-96.7992,5,ADDISON 7,ADDISON 7 2,North Central,69,0.96871,66.841,-28.5,34.9,3.76,,1400,,,0,0,1,PQ,0,0,0,1,14
260177,32.7376,-97.1443,5,HURST 6,HURST 6 1,North Central,69,1.01661,70.146,-25.77,34.9,7.7,,4692,,,0,0,1,PQ,0,0,0,2,27
110354,30.3207,-95.4001,7,CONROE 1,CONROE 1 2,Coast,69,1.00749,69.517,-25.93,34.9,8.9,,235,,,0,0,1,PQ,0,0,0,1,12
120329,29.4018,-98.405,6,SAN ANTONIO 32,SAN ANTONIO 32 2,South Central,69,1.02014,70.389,1.07,34.9,11.6,,1173,,,0,0,1,PQ,0,0,0,1,13
111116,29.6745,-95.1717,7,PASADENA 5,PASADENA 5 1,Coast,69,1.01714,70.183,-27.59,34.9,8.8,,789,,,0,0,1,PQ,0,0,0,1,12
110319,29.6835,-95.5023,7,BELLAIRE 5,BELLAIRE 5 1,Coast,69,0.99337,68.542,-25.28,34.9,11.2,,210,,,0,0,1,PQ,0,0,0,1,12
110917,29.5737,-95.5396,7,MISSOURI CITY 7,MISSOURI CITY 7 2,Coast,69,1.01557,70.075,-22.82,34.9,4.8,,665,,,0,0,1,PQ,0,0,0,1,12
110885,29.5546,-95.4006,7,FRESNO 2,FRESNO 2 3,Coast,69,1.0109,69.752,-25.13,34.9,7.4,,644,,,0,0,1,PQ,0,0,0,1,12
140278,30.524,-97.5505,6,HUTTO 1,HUTTO 1 2,South Central,69,1.0059,69.407,-6.14,34.9,10.6,,1791,,,0,0,1,PQ,0,0,0,1,15
160149,27.7222,-97.4249,4,CORPUS CHRISTI 15,CORPUS CHRISTI 15 1,South,138,1.01957,140.7,20.61,34.9,12.6,,2362,,,0,0,1,PQ,0,0,0,1,17
111039,29.9673,-95.6561,7,CYPRESS 47,CYPRESS 47 1,Coast,69,1.01308,69.902,-25.18,34.9,3.16,,737,,,0,0,1,PQ,0,0,0,1,12
110327,29.669,-95.4713,7,BELLAIRE 12,BELLAIRE 12 1,Coast,69,0.99546,68.687,-25.4,34.9,12.3,,217,,,0,0,1,PQ,0,0,0,1,12
120409,29.3702,-98.5015,6,SAN ANTONIO 56,SAN ANTONIO 56 1,South Central,69,1.0179,70.235,1.2,34.8,11.8,,1231,,,0,0,1,PQ,0,0,0,1,13
111110,29.7181,-95.2069,7,GALENA PARK 14,GALENA PARK 14 1,Coast,69,1.01248,69.861,-27.61,34.7,5.1,,784,,,0,0,1,PQ,0,0,0,1,12
110851,29.9508,-95.4389,7,SPRING 16,SPRING 16 1,Coast,69,1.00071,69.049,-26.89,34.7,5.05,,623,,,0,0,1,PQ,0,0,0,1,12
140244,30.4468,-97.7655,6,CEDAR PARK 17,CEDAR PARK 17 2,South Central,69,1.0055,69.379,-7.21,34.7,3.98,,1766,,,0,0,1,PQ,0,0,0,1,15
270102,30.0043,-97.8819,6,KYLE 2,KYLE 2 2,South Central,69,1.00921,69.636,-5.52,34.6,3.31,,4814,,,0,0,1,PQ,0,0,0,2,28
270092,29.8793,-97.6778,6,LOCKHART 3,LOCKHART 3 1,South Central,138,1.02874,141.966,-3.48,34.6,11.56,,4807,,,0,0,1,PQ,0,0,0,2,28
130038,32.6973,-96.5881,5,BALCH SPRINGS 2,BALCH SPRINGS 2 2,North Central,69,1.02756,70.902,-27.3,34.6,5.7,,1311,,,0,0,1,PQ,0,0,0,1,14
110938,29.5412,-95.7103,7,SUGAR LAND 65,SUGAR LAND 65 2,Coast,69,1.02482,70.713,-22.36,34.6,4.7,,680,,,0,0,1,PQ,0,0,0,1,12
250260,32.3138,-95.3247,8,TYLER 19,TYLER 19 1,East,138,1.03553,142.903,-14.62,34.6,11.2,,4476,,,0,0,1,PQ,0,0,0,2,26
140071,30.2793,-97.7991,6,AUSTIN 12,AUSTIN 12 2,South Central,69,1.02012,70.388,-10.1,34.5,12.4,,1641,,,0,0,1,PQ,0,0,0,1,15
150259,32.9744,-97.2687,5,KELLER 4,KELLER 4 2,North Central,69,1.01396,69.963,-25.38,34.5,11.8,,2052,,,0,0,1,PQ,0,0,0,1,16
130058,32.7206,-96.8915,5,DUNCANVILLE 3,DUNCANVILLE 3 1,North Central,69,0.99884,68.92,-29.57,34.5,6.63,,1327,,,0,0,1,PQ,0,0,0,1,14
200126,26.1706,-98.1985,4,PHARR 1,PHARR 1 1,South,138,1.03661,143.052,26.01,34.5,12.2,,3260,,,0,0,1,PQ,0,0,0,2,21
130070,32.7142,-96.8708,5,DUNCANVILLE 8,DUNCANVILLE 8 1,North Central,69,1.00521,69.36,-29.08,34.5,8.85,,1337,,,0,0,1,PQ,0,0,0,1,14
140207,30.1551,-97.8048,6,MANCHACA 5,MANCHACA 5 1,South Central,69,1.0141,69.973,-8.22,34.4,4.6,,1743,,,0,0,1,PQ,0,0,0,1,15
130065,32.7224,-96.8472,5,DALLAS 12,DALLAS 12 1,North Central,69,1.01289,69.889,-28.85,34.4,17.7,,1334,,,0,0,1,PQ,0,0,0,1,14
170179,32.9874,-96.5501,5,WYLIE 2,WYLIE 2 1,North Central,69,1.00257,69.177,-29.54,34.4,13.4,,2586,,,0,0,1,PQ,0,0,0,1,18
110355,30.3495,-95.428,7,CONROE 2,CONROE 2 1,Coast,69,1.02001,70.38,-26.23,34.3,8.59,,236,,,0,0,1,PQ,0,0,0,1,12
110698,29.8413,-95.3735,7,HOUSTON 11,HOUSTON 11 2,Coast,69,0.99645,68.755,-28.56,34.3,11.2,,512,,,0,0,1,PQ,0,0,0,1,12
120428,29.5837,-98.2549,6,CIBOLO 5,CIBOLO 5 2,South Central,69,1.00297,69.205,-0.82,34.3,11.2,,1245,,,0,0,1,PQ,0,0,0,1,13
110692,29.7891,-95.3326,7,HOUSTON 7,HOUSTON 7 1,Coast,69,1.00273,69.189,-28.52,34.3,6.6,,508,,,0,0,1,PQ,0,0,0,1,12
200146,26.4619,-97.7856,4,RAYMONDVILLE 3,RAYMONDVILLE 3 1,South,138,1.0389,143.369,31.48,34.3,9.8,,3278,,,0,0,1,PQ,0,0,0,2,21
240030,29.3703,-100.906,4,LAUGHLIN A F B 6,LAUGHLIN A F B 6 1,South,138,1.04906,144.771,18.37,34.2,6.3,,4026,,,0,0,1,PQ,0,0,0,2,25
110875,29.5675,-95.3959,7,FRESNO 1,FRESNO 1 1,Coast,69,1.00349,69.241,-25.89,34.2,11.3,,639,,,0,0,1,PQ,0,0,0,1,12
110714,29.8326,-95.3845,7,HOUSTON 21,HOUSTON 21 1,Coast,69,0.99503,68.657,-28.66,34.1,3.31,,522,,,0,0,1,PQ,0,0,0,1,12
110323,29.7244,-95.4588,7,BELLAIRE 9,BELLAIRE 9 1,Coast,69,0.99265,68.493,-26.34,34.1,8.6,,214,,,0,0,1,PQ,0,0,0,1,12
170253,33.1052,-96.7415,5,PLANO 12,PLANO 12 2,North Central,69,1.00969,69.669,-29.51,34.1,11,,2637,,,0,0,1,PQ,0,0,0,1,18
170220,33.1759,-96.8906,5,FRISCO 5,FRISCO 5 3,North Central,69,1.02123,70.465,-29.01,34.1,10.3,,2612,,,0,0,1,PQ,0,0,0,1,18
111038,29.9188,-95.5682,7,CYPRESS 46,CYPRESS 46 1,Coast,69,1.03534,71.439,-25.17,34.1,8,,736,,48.88,0,0,1,PQ,0,0,0,1,12
240161,32.4634,-99.7578,3,DYESS AFB 6,DYESS AFB 6 1,West,138,1.04691,144.474,15.55,34.1,13.1,,4154,,124.27,0,0,1,PQ,0,0,0,2,25
260057,32.8335,-96.9673,5,IRVING 9,IRVING 9 1,North Central,69,0.99244,68.478,-29.78,34,7.05,,4604,,,0,0,1,PQ,0,0,0,2,27
140228,30.5084,-97.7356,6,ROUND ROCK 8,ROUND ROCK 8 2,South Central,69,0.98828,68.192,-8.71,34,4.07,,1756,,,0,0,1,PQ,0,0,0,1,15
200038,26.2568,-98.2881,4,MCALLEN 2,MCALLEN 2 1,South,138,1.04115,143.679,26.63,34,11.2,,3173,,33.82,0,0,1,PQ,0,0,0,2,21
120399,29.5414,-98.3537,6,UNIVERSAL CITY 12,UNIVERSAL CITY 12 2,South Central,69,1.01961,70.353,-1.72,34,5.2,,1224,,,0,0,1,PQ,0,0,0,1,13
120393,29.4922,-98.4171,6,SAN ANTONIO 53,SAN ANTONIO 53 1,South Central,69,1.0153,70.056,-1.42,33.9,9.2,,1220,,,0,0,1,PQ,0,0,0,1,13
110758,29.9965,-95.1917,7,KINGWOOD 6,KINGWOOD 6 2,Coast,69,1.00722,69.498,-26.52,33.9,11.8,,551,,,0,0,1,PQ,0,0,0,1,12
220001,31.3752,-103.53,1,PECOS 1,PECOS 1 1,Far West,138,1.04159,143.739,43.1,33.84,6.2,,3584,,,0,0,1,PQ,0,0,0,2,23
240163,32.3894,-99.7508,3,DYESS AFB 7,DYESS AFB 7 1,West,138,1.03848,143.31,17.07,33.7,5.4,,4156,,,0,0,1,PQ,0,0,0,2,25
140215,30.1528,-97.8426,6,MANCHACA 7,MANCHACA 7 3,South Central,69,1.01535,70.059,-7.61,33.7,5.4,,1748,,,0,0,1,PQ,0,0,0,1,15
110777,29.7261,-95.3855,7,HOUSTON 27,HOUSTON 27 1,Coast,69,0.98869,68.22,-28.06,33.6,6.1,,565,,,0,0,1,PQ,0,0,0,1,12
110726,29.1676,-95.431,7,ANGLETON 6,ANGLETON 6 2,Coast,69,1.00424,69.292,-18.46,33.6,9.8,,532,,,0,0,1,PQ,0,0,0,1,12
260123,32.626,-96.9436,5,DUNCANVILLE 15,DUNCANVILLE 15 2,North Central,69,1.00615,69.424,-25.13,33.6,3.89,,4651,,,0,0,1,PQ,0,0,0,2,27
110859,30.4142,-95.6285,7,WILLIS 2,WILLIS 2 2,Coast,69,1.01155,69.797,-18.84,33.5,11.2,,627,,,0,0,1,PQ,0,0,0,1,12
111162,29.7355,-95.5761,7,STAFFORD 22,STAFFORD 22 1,Coast,69,1.01544,70.065,-24.51,33.5,11.1,,817,,,0,0,1,PQ,0,0,0,1,12
110905,29.6455,-95.4999,7,BELLAIRE 21,BELLAIRE 21 2,Coast,69,1.0011,69.076,-23.91,33.4,4.5,,655,,,0,0,1,PQ,0,0,0,1,12
200136,26.2588,-98.2176,4,EDINBURG 14,EDINBURG 14 1,South,138,1.04652,144.419,25.77,33.4,2.56,,3269,,,0,0,1,PQ,0,0,0,2,21
170094,33.0205,-96.8669,5,CARROLLTON 10,CARROLLTON 10 1,North Central,69,1.02838,70.958,-34.73,33.4,9.8,,2522,,103.54,0,0,1,PQ,0,0,0,1,18
110784,29.6872,-95.3354,7,HOUSTON 29,HOUSTON 29 1,Coast,69,1.04047,71.792,-28.27,33.4,7.6,,571,,232.54,0,0,1,PQ,0,0,0,1,12
170209,33.1341,-96.7923,5,FRISCO 1,FRISCO 1 2,North Central,69,1.00707,69.488,-30.79,33.4,8.6,,2604,,,0,0,1,PQ,0,0,0,1,18
150268,32.9131,-97.2838,5,KELLER 7,KELLER 7 1,North Central,69,1.01757,70.212,-24.79,33.3,4.07,,2056,,,0,0,1,PQ,0,0,0,1,16
200031,26.3012,-98.3032,4,MISSION 2,MISSION 2 1,South,138,1.04115,143.679,26.88,33.3,2.79,,3166,,,0,0,1,PQ,0,0,0,2,21
110178,29.8931,-95.314,7,HUMBLE 8,HUMBLE 8 1,Coast,69,1.02891,70.995,-28.16,33.3,10.3,,83,,148.42,0,0,1,PQ,0,0,0,1,12
170495,33.1186,-96.1073,5,GREENVILLE 6,GREENVILLE 6 1,North Central,138,1.03174,142.381,-22.59,33.3,9.96,,2843,,,0,0,1,PQ,0,0,0,1,18
160138,27.8119,-97.487,4,CORPUS CHRISTI 7,CORPUS CHRISTI 7 1,South,138,1.02258,141.116,20.48,33.3,3.98,,2352,,,0,0,1,PQ,0,0,0,1,17
190094,35.2296,-101.804,2,AMARILLO 17,AMARILLO 17 1,North,138,1.03677,143.075,42.8,33.2,11.29,,3088,,,0,0,1,PQ,0,0,0,1,20
111121,29.7131,-95.232,7,GALENA PARK 17,GALENA PARK 17 1,Coast,69,1.01004,69.693,-27.64,33.2,9.4,,791,,,0,0,1,PQ,0,0,0,1,12
140184,30.4693,-97.5735,6,PFLUGERVILLE 4,PFLUGERVILLE 4 2,South Central,69,1.01266,69.874,-6.3,33.2,6.6,,1728,,,0,0,1,PQ,0,0,0,1,15
240106,31.1816,-99.2519,3,BRADY 1,BRADY 1 1,West,138,1.02735,141.775,3.29,33.2,8.05,,4099,,,0,0,1,PQ,0,0,0,2,25
110389,29.7737,-94.9777,7,BAYTOWN 1,BAYTOWN 1 1,Coast,69,1.00201,69.139,-26.69,33.1,11.9,,263,,,0,0,1,PQ,0,0,0,1,12
150149,32.9241,-97.4273,5,NEWARK 2,NEWARK 2 2,North Central,69,1.00608,69.419,-20.23,33.1,11.8,,1968,,,0,0,1,PQ,0,0,0,1,16
270123,29.5532,-98.0348,6,MC QUEENEY 3,MC QUEENEY 3 1,South Central,69,1.01778,70.227,-5.8,33,8.61,,4833,,,0,0,1,PQ,0,0,0,2,28
150230,32.8514,-97.2544,5,NORTH RICHLAND HILLS 4,NORTH RICHLAND HILLS 4 2,North Central,69,1.00424,69.293,-23.58,33,9.3,,2027,,,0,0,1,PQ,0,0,0,1,16
260140,32.8179,-97.1418,5,BEDFORD 2,BEDFORD 2 1,North Central,69,1.02731,70.884,-27.19,32.9,8.98,,4664,,,0,0,1,PQ,0,0,0,2,27
250258,31.977,-95.2784,8,JACKSONVILLE 4,JACKSONVILLE 4 2,East,138,1.03776,143.211,-6.66,32.9,8.35,,4474,,,0,0,1,PQ,0,0,0,2,26
190065,34.4402,-102.125,2,HART 1,HART 1 1,North,138,1.01405,139.939,43.71,32.9,13,,3060,,,0,0,1,PQ,0,0,0,1,20
111099,29.6487,-95.223,7,SOUTH HOUSTON 4,SOUTH HOUSTON 4 2,Coast,69,1.01416,69.977,-26.46,32.8,5.8,,777,,,0,0,1,PQ,0,0,0,1,12
180005,27.5148,-99.4863,4,LAREDO 1,LAREDO 1 1,South,138,1.03633,143.014,20.2,32.8,9.4,,2887,,,0,0,1,PQ,0,0,0,1,19
260182,32.7382,-97.1106,5,HURST 9,HURST 9 2,North Central,69,1.02352,70.623,-25.37,32.8,11.8,,4696,,,0,0,1,PQ,0,0,0,2,27
111108,29.6682,-95.2231,7,SOUTH HOUSTON 7,SOUTH HOUSTON 7 1,Coast,69,1.01297,69.895,-26.81,32.8,11.8,,782,,,0,0,1,PQ,0,0,0,1,12
220018,30.8578,-102.864,1,FORT STOCKTON 2,FORT STOCKTON 2 1,Far West,138,1.03863,143.331,43.28,32.8,7.7,,3599,,,0,0,1,PQ,0,0,0,2,23
260146,32.8648,-97.1724,5,COLLEYVILLE 3,COLLEYVILLE 3 2,North Central,69,1.01422,69.981,-25.81,32.8,1.65,,4667,,,0,0,1,PQ,0,0,0,2,27
230236,30.6644,-96.3758,8,BRYAN 10,BRYAN 10 1,East,138,1.03381,142.666,-5.47,32.8,11.1,,3972,,,0,0,1,PQ,0,0,0,2,24
110483,29.5849,-95.2102,7,FRIENDSWOOD 9,FRIENDSWOOD 9 2,Coast,69,1.02603,70.796,-28.14,32.8,8.9,,329,,,0,0,1,PQ,0,0,0,1,12
120407,29.3416,-98.5033,6,LACKLAND A F B 16,LACKLAND A F B 16 2,South Central,69,1.02336,70.612,1.84,32.8,6.5,,1229,,,0,0,1,PQ,0,0,0,1,13
130282,32.8488,-96.8248,5,DALLAS 33,DALLAS 33 1,North Central,69,1.01314,69.907,-29.38,32.6,4.9,,1509,,,0,0,1,PQ,0,0,0,1,14
120249,29.4387,-98.7522,6,RIO MEDINA 3,RIO MEDINA 3 2,South Central,69,1.01706,70.177,1.65,32.6,10,,1114,,,0,0,1,PQ,0,0,0,1,13
200142,26.2192,-97.7256,4,COMBES 3,COMBES 3 1,South,138,1.03354,142.629,29.41,32.6,6.4,,3275,,,0,0,1,PQ,0,0,0,2,21
250221,32.3039,-95.2782,8,TYLER 11,TYLER 11 1,East,138,1.03889,143.367,-14.17,32.6,11.3,,4440,,,0,0,1,PQ,0,0,0,2,26
110783,29.6594,-95.3158,7,SOUTH HOUSTON 3,SOUTH HOUSTON 3 1,Coast,69,1.01714,70.183,-27.31,32.6,3.31,,570,,,0,0,1,PQ,0,0,0,1,12
150355,34.0822,-98.5674,2,BURKBURNETT 2,BURKBURNETT 2 1,North,138,1.03146,142.341,7.3,32.5,9.4,,2115,,,0,0,1,PQ,0,0,0,1,16
140060,30.2879,-97.7445,6,AUSTIN 3,AUSTIN 3 1,South Central,69,1.03268,71.255,-10.89,32.5,6,,1632,,,0,0,1,PQ,0,0,0,1,15
270169,29.7542,-98.0866,6,NEW BRAUNFELS 3,NEW BRAUNFELS 3 2,South Central,69,1.02643,70.823,-1.29,32.5,11.21,,4869,,,0,0,1,PQ,0,0,0,2,28
170213,33.0906,-96.8695,5,THE COLONY 4,THE COLONY 4 1,North Central,69,1.03499,71.414,-33.26,32.5,10.8,,2607,,102.84,0,0,1,PQ,0,0,0,1,18
200122,26.2383,-98.2019,4,MCALLEN 6,MCALLEN 6 1,South,138,1.04517,144.234,26.18,32.4,6.4,,3256,,,0,0,1,PQ,0,0,0,2,21
140282,30.5356,-97.6139,6,ROUND ROCK 12,ROUND ROCK 12 2,South Central,69,1.00156,69.107,-7.18,32.4,4.5,,1794,,,0,0,1,PQ,0,0,0,1,15
110463,29.5318,-95.1718,7,FRIENDSWOOD 3,FRIENDSWOOD 3 2,Coast,69,1.02591,70.788,-26.9,32.4,7.5,,312,,,0,0,1,PQ,0,0,0,1,12
110467,29.5948,-95.2348,7,PEARLAND 3,PEARLAND 3 1,Coast,69,1.031,71.139,-29,32.4,2.49,,315,,,0,0,1,PQ,0,0,0,1,12
110560,29.645,-95.1434,7,DEER PARK 11,DEER PARK 11 1,Coast,69,1.01644,70.134,-27.54,32.4,5.7,,392,,,0,0,1,PQ,0,0,0,1,12
150354,33.8613,-98.5479,2,WICHITA FALLS 6,WICHITA FALLS 6 1,North,138,1.03204,142.421,6.77,32.3,11.4,,2114,,,0,0,1,PQ,0,0,0,1,16
130305,32.0977,-96.4629,5,CORSICANA 3,CORSICANA 3 1,North Central,138,1.03205,142.423,-11.03,32.2,12.6,,1527,,,0,0,1,PQ,0,0,0,1,14
180036,26.9317,-99.2583,4,ZAPATA 1,ZAPATA 1 1,South,138,1.03117,142.302,25.45,32.19,8.25,,2916,,,0,0,1,PQ,0,0,0,1,19
110878,29.6241,-95.3708,7,PEARLAND 10,PEARLAND 10 2,Coast,69,1.02808,70.938,-26.88,32,9.1,,641,,,0,0,1,PQ,0,0,0,1,12
260194,32.4834,-96.9962,5,MIDLOTHIAN 5,MIDLOTHIAN 5 1,North Central,138,1.01233,139.702,-17.11,32,5.9,,4707,,,0,0,1,PQ,0,0,0,2,27
200041,26.2352,-98.3951,4,MISSION 9,MISSION 9 1,South,138,1.04024,143.553,28.17,31.9,5.6,,3176,,,0,0,1,PQ,0,0,0,2,21
110391,29.7517,-95.0003,7,BAYTOWN 3,BAYTOWN 3 1,Coast,69,1.00432,69.298,-25.9,31.8,3.98,,265,,,0,0,1,PQ,0,0,0,1,12
210136,31.5668,-97.1773,5,WACO 7,WACO 7 1,North Central,69,1.04204,71.901,-7.57,31.8,4.6,,3429,,68.41,0,0,1,PQ,0,0,0,2,22
140276,30.527,-97.7071,6,ROUND ROCK 10,ROUND ROCK 10 1,South Central,69,0.98411,67.904,-8.87,31.8,6.1,,1790,,,0,0,1,PQ,0,0,0,1,15
110388,29.7942,-95.0333,7,HIGHLANDS 1,HIGHLANDS 1 2,Coast,69,1.02237,70.543,-26.93,31.8,8.8,,262,,,0,0,1,PQ,0,0,0,1,12
150180,32.5409,-97.3285,5,BURLESON 3,BURLESON 3 2,North Central,69,1.01318,69.91,-17.7,31.8,10.1,,1990,,,0,0,1,PQ,0,0,0,1,16
110812,29.7403,-95.7592,7,KATY 83,KATY 83 1,Coast,69,1.02867,70.978,-23.15,31.8,8.5,,591,,,0,0,1,PQ,0,0,0,1,12
120400,29.3916,-98.5708,6,LACKLAND A F B 14,LACKLAND A F B 14 1,South Central,69,1.01795,70.239,-0.34,31.8,7.1,,1225,,,0,0,1,PQ,0,0,0,1,13
260171,32.7779,-97.0764,5,GRAND PRAIRIE 21,GRAND PRAIRIE 21 1,North Central,69,1.02987,71.061,-29.1,31.8,4.25,,4688,,,0,0,1,PQ,0,0,0,2,27
190078,35.1495,-101.884,2,AMARILLO 7,AMARILLO 7 1,North,138,1.04185,143.776,42.52,31.8,6.7,,3073,,,0,0,1,PQ,0,0,0,1,20
160142,27.7858,-97.3985,4,CORPUS CHRISTI 10,CORPUS CHRISTI 10 1,South,138,1.02254,141.11,20.95,31.8,11.4,,2355,,,0,0,1,PQ,0,0,0,1,17
140094,30.2157,-97.6922,6,AUSTIN 27,AUSTIN 27 2,South Central,69,1.02362,70.63,-8.28,31.8,5.34,,1657,,,0,0,1,PQ,0,0,0,1,15
170255,33.0168,-96.7638,5,RICHARDSON 2,RICHARDSON 2 1,North Central,69,1.01949,70.345,-35.23,31.7,7.2,,2639,,,0,0,1,PQ,0,0,0,1,18
140181,30.4464,-97.6217,6,PFLUGERVILLE 3,PFLUGERVILLE 3 1,South Central,69,1.00194,69.134,-7.35,31.7,4.6,,1726,,,0,0,1,PQ,0,0,0,1,15
110459,29.507,-95.0854,7,LEAGUE CITY 4,LEAGUE CITY 4 2,Coast,69,1.01113,69.768,-26.05,31.4,8.4,,309,,,0,0,1,PQ,0,0,0,1,12
200030,26.241,-98.3748,4,MISSION 1,MISSION 1 2,South,138,1.04132,143.703,28.51,31.4,4.25,,3165,,,0,0,1,PQ,0,0,0,2,21
130272,32.789,-96.8129,5,DALLAS 24,DALLAS 24 2,North Central,69,1.02394,70.652,-28.47,31.3,9.86,,1500,,,0,0,1,PQ,0,0,0,1,14
150353,33.9681,-98.5124,2,SHEPPARD AFB 3,SHEPPARD AFB 3 1,North,138,1.04341,143.99,8.81,31.3,2.34,,2113,,65.87,0,0,1,PQ,0,0,0,1,16
111011,29.7951,-95.5127,7,BELLAIRE 39,BELLAIRE 39 1,Coast,69,1.00177,69.122,-26.4,31.3,10.6,,717,,,0,0,1,PQ,0,0,0,1,12
240174,31.4191,-100.493,3,GOODFELLOW AFB 5,GOODFELLOW AFB 5 1,West,138,1.03741,143.163,20.78,31.3,8.3,,4164,,,0,0,1,PQ,0,0,0,2,25
110420,29.8543,-95.1977,7,CHANNELVIEW 6,CHANNELVIEW 6 1,Coast,69,1.0233,70.608,-26.37,31.3,9.3,,283,,,0,0,1,PQ,0,0,0,1,12
260031,32.7585,-97.0285,5,GRAND PRAIRIE 5,GRAND PRAIRIE 5 1,North Central,69,0.99353,68.554,-29.32,31.2,9.6,,4587,,,0,0,1,PQ,0,0,0,2,27
130277,32.7995,-96.8037,5,DALLAS 29,DALLAS 29 1,North Central,69,1.02301,70.588,-29.38,31.2,9.11,,1505,,,0,0,1,PQ,0,0,0,1,14
110582,29.7854,-95.6878,7,KATY 78,KATY 78 2,Coast,69,1.03391,71.339,-23.69,31.2,10.2,,406,,,0,0,1,PQ,0,0,0,1,12
110746,30.0572,-95.1638,7,KINGWOOD 1,KINGWOOD 1 2,Coast,69,1.01005,69.694,-27.48,31.2,1.43,,544,,,0,0,1,PQ,0,0,0,1,12
260184,33.1908,-97.1486,5,DENTON 11,DENTON 11 1,North Central,69,0.99276,68.501,-28.86,31.2,10.84,,4698,,,0,0,1,PQ,0,0,0,2,27
130311,32.0885,-96.4549,5,CORSICANA 4,CORSICANA 4 2,North Central,138,1.0312,142.305,-10.47,31.2,14.4,,1532,,,0,0,1,PQ,0,0,0,1,14
110922,29.5977,-95.4783,7,FRESNO 5,FRESNO 5 2,Coast,69,1.03063,71.114,-24.34,31.2,7.4,,668,,,0,0,1,PQ,0,0,0,1,12
140153,30.3649,-97.7354,6,AUSTIN 46,AUSTIN 46 1,South Central,69,0.99706,68.797,-8.92,31.2,10.3,,1705,,,0,0,1,PQ,0,0,0,1,15
110999,29.7696,-95.5059,7,BELLAIRE 31,BELLAIRE 31 2,Coast,69,1.0044,69.304,-25.55,31.1,7.7,,709,,,0,0,1,PQ,0,0,0,1,12
220087,31.8602,-102.396,1,ODESSA 11,ODESSA 11 1,Far West,138,1.0268,141.698,25.51,31.1,6.8,,3668,,,0,0,1,PQ,0,0,0,2,23
130048,32.7588,-96.8332,5,DALLAS 2,DALLAS 2 1,North Central,69,1.01571,70.084,-29.22,31.1,10.18,,1319,,,0,0,1,PQ,0,0,0,1,14
140252,30.5437,-97.7503,6,CEDAR PARK 21,CEDAR PARK 21 1,South Central,69,0.99931,68.953,-7.95,31.1,3.01,,1773,,,0,0,1,PQ,0,0,0,1,15
140149,30.4208,-97.7713,6,CEDAR PARK 9,CEDAR PARK 9 1,South Central,69,0.98694,68.099,-9.32,31,10.3,,1702,,,0,0,1,PQ,0,0,0,1,15
200128,26.2134,-98.1971,4,MCALLEN 9,MCALLEN 9 2,South,138,1.04505,144.216,27.6,31,6.8,,3261,,,0,0,1,PQ,0,0,0,2,21
120228,29.5471,-98.4075,6,UNIVERSAL CITY 2,UNIVERSAL CITY 2 2,South Central,69,0.99852,68.898,-2.36,31,8.6,,1098,,,0,0,1,PQ,0,0,0,1,13
260178,32.7054,-97.1168,5,ARLINGTON 15,ARLINGTON 15 1,North Central,69,1.01727,70.191,-25.65,31,3.31,,4693,,,0,0,1,PQ,0,0,0,2,27
140248,30.4908,-97.8362,6,CEDAR PARK 20,CEDAR PARK 20 2,South Central,69,1.00104,69.072,-7.62,30.9,4.8,,1769,,,0,0,1,PQ,0,0,0,1,15
130042,32.6488,-96.5542,5,SEAGOVILLE 1,SEAGOVILLE 1 2,North Central,69,1.01994,70.376,-26.87,30.9,9.21,,1313,,,0,0,1,PQ,0,0,0,1,14
150306,32.7474,-97.4163,5,NAVAL AIR STATION_ JRB 11,NAVAL AIR STATION_ JRB 11 1,North Central,69,1.02359,70.628,-22.89,30.9,5.5,,2081,,,0,0,1,PQ,0,0,0,1,16
150319,32.7132,-97.4437,5,NAVAL AIR STATION_ JRB 17,NAVAL AIR STATION_ JRB 17 1,North Central,69,1.04238,71.924,-23.43,30.9,7.8,,2089,,112.57,0,0,1,PQ,0,0,0,1,16
130147,32.6043,-96.8895,5,DESOTO 2,DESOTO 2 1,North Central,69,1.00934,69.645,-26.19,30.9,6.3,,1391,,,0,0,1,PQ,0,0,0,1,14
170439,33.245,-97.12,5,DENTON 6,DENTON 6 2,North Central,69,1.03262,71.251,-24.12,30.9,10.3,,2792,,,0,0,1,PQ,0,0,0,1,18
111112,29.6267,-95.219,7,SOUTH HOUSTON 9,SOUTH HOUSTON 9 1,Coast,69,1.04238,71.924,-29.13,30.9,9.8,,786,,206.66,0,0,1,PQ,0,0,0,1,12
120233,29.5731,-98.4254,6,UNIVERSAL CITY 4,UNIVERSAL CITY 4 1,South Central,69,0.99907,68.936,-2.64,30.9,10.2,,1103,,,0,0,1,PQ,0,0,0,1,13
170284,32.931,-96.6603,5,GARLAND 11,GARLAND 11 1,North Central,69,1.02757,70.902,-31.56,30.8,7.7,,2662,,,0,0,1,PQ,0,0,0,1,18
140061,30.2947,-97.7357,6,AUSTIN 4,AUSTIN 4 1,South Central,69,1.03938,71.717,-11.14,30.8,8,,1633,,184.52,0,0,1,PQ,0,0,0,1,15
110328,29.7135,-95.5271,7,BELLAIRE 13,BELLAIRE 13 1,Coast,69,0.99098,68.378,-24.76,30.8,10.3,,218,,,0,0,1,PQ,0,0,0,1,12
150332,32.5861,-97.3413,5,BURLESON 11,BURLESON 11 2,North Central,69,1.0109,69.752,-18,30.8,4.7,,2099,,,0,0,1,PQ,0,0,0,1,16
110983,30.1293,-95.4063,7,SPRING 20,SPRING 20 2,Coast,69,0.97707,67.418,-27.47,30.7,7.3,,700,,,0,0,1,PQ,0,0,0,1,12
210191,31.0795,-97.7395,5,KILLEEN 7,KILLEEN 7 1,North Central,69,1.02375,70.639,-4.55,30.7,8.5,,3468,,,0,0,1,PQ,0,0,0,2,22
130086,32.7757,-96.7012,5,MESQUITE 5,MESQUITE 5 1,North Central,69,1.02261,70.56,-29.62,30.6,9.21,,1349,,,0,0,1,PQ,0,0,0,1,14
130274,32.8276,-96.8126,5,DALLAS 26,DALLAS 26 1,North Central,69,0.98237,67.783,-27.42,30.6,6.07,,1502,,,0,0,1,PQ,0,0,0,1,14
200153,26.1847,-97.6716,4,HARLINGEN 4,HARLINGEN 4 1,South,138,1.03981,143.494,28.26,30.6,4.42,,3285,,,0,0,1,PQ,0,0,0,2,21
110514,29.9989,-95.4873,7,SPRING 1,SPRING 1 2,Coast,69,0.98897,68.239,-27.07,30.6,8.8,,353,,,0,0,1,PQ,0,0,0,1,12
160175,28.6963,-96.5418,7,POINT COMFORT 4,POINT COMFORT 4 1,Coast,138,1.03536,142.88,2.64,30.5,10.8,,2388,,,0,0,1,PQ,0,0,0,1,17
170186,33.0902,-96.6583,5,ALLEN 2,ALLEN 2 1,North Central,69,1.00142,69.098,-29.56,30.5,9.41,,2591,,,0,0,1,PQ,0,0,0,1,18
200021,26.1301,-97.6277,4,SAN BENITO 3,SAN BENITO 3 1,South,138,1.03983,143.496,27.52,30.5,7.3,,3157,,,0,0,1,PQ,0,0,0,2,21
110384,30.2056,-95.5375,7,MAGNOLIA 6,MAGNOLIA 6 2,Coast,69,1.00748,69.516,-25.87,30.5,10.7,,259,,,0,0,1,PQ,0,0,0,1,12
120375,29.5608,-98.598,6,SAN ANTONIO 43,SAN ANTONIO 43 2,South Central,69,1.00582,69.401,-1.46,30.5,10.1,,1204,,,0,0,1,PQ,0,0,0,1,13
110539,29.6617,-95.02,7,LA PORTE 4,LA PORTE 4 1,Coast,69,0.99024,68.326,-28.88,30.4,9,,373,,,0,0,1,PQ,0,0,0,1,12
140065,30.267,-97.7006,6,AUSTIN 7,AUSTIN 7 2,South Central,69,1.02734,70.886,-9.08,30.4,10.5,,1636,,,0,0,1,PQ,0,0,0,1,15
110997,29.821,-95.5512,7,BELLAIRE 30,BELLAIRE 30 1,Coast,69,1.00807,69.556,-26.06,30.4,7.49,,708,,,0,0,1,PQ,0,0,0,1,12
111152,29.7419,-95.6312,7,SUGAR LAND 68,SUGAR LAND 68 1,Coast,69,1.01162,69.802,-24.04,30.3,10.3,,812,,,0,0,1,PQ,0,0,0,1,12
160173,28.8391,-96.9979,7,VICTORIA 7,VICTORIA 7 1,Coast,138,1.03456,142.77,9.1,30.3,9.7,,2386,,,0,0,1,PQ,0,0,0,1,17
220060,32.5043,-102.02,1,TARZAN 1,TARZAN 1 1,Far West,138,1.03134,142.325,23.15,30.3,1.05,,3641,,,0,0,1,PQ,0,0,0,2,23
110558,29.712,-95.1392,7,DEER PARK 10,DEER PARK 10 1,Coast,69,1.03886,71.681,-27.81,30.3,5.3,,390,,139.14,0,0,1,PQ,0,0,0,1,12
110825,29.9194,-95.4008,7,SPRING 6,SPRING 6 2,Coast,69,1.00953,69.658,-28,30.3,9.4,,602,,,0,0,1,PQ,0,0,0,1,12
120280,29.4563,-98.5971,6,LACKLAND A F B 9,LACKLAND A F B 9 2,South Central,69,1.02276,70.571,-0.85,30.3,1.05,,1138,,,0,0,1,PQ,0,0,0,1,13
120392,29.4696,-98.3477,6,CONVERSE 6,CONVERSE 6 1,South Central,69,1.02538,70.751,-1.7,30.3,9.7,,1219,,,0,0,1,PQ,0,0,0,1,13
130284,32.8652,-96.7499,5,DALLAS 35,DALLAS 35 1,North Central,69,1.01907,70.316,-31.8,30.3,10.8,,1511,,,0,0,1,PQ,0,0,0,1,14
160041,27.3432,-98.1416,4,PREMONT 1,PREMONT 1 1,South,138,1.04991,144.887,26.05,30.3,7.15,,2257,,8.24,0,0,1,PQ,0,0,0,1,17
110578,29.7734,-95.7156,7,KATY 76,KATY 76 1,Coast,69,1.02752,70.899,-24.17,30.3,5.9,,404,,,0,0,1,PQ,0,0,0,1,12
120324,29.4097,-98.4654,6,SAN ANTONIO 29,SAN ANTONIO 29 1,South Central,69,1.01179,69.814,0.65,30.3,8,,1170,,,0,0,1,PQ,0,0,0,1,13
170455,33.665,-95.5859,2,PARIS 4,PARIS 4 1,North,138,1.04095,143.651,-17.94,30.2,5.25,,2806,,,0,0,1,PQ,0,0,0,1,18
150285,32.8023,-97.3482,5,FORT WORTH 18,FORT WORTH 18 1,North Central,69,1.01142,69.788,-21.05,30.2,8.63,,2069,,,0,0,1,PQ,0,0,0,1,16
130299,32.8118,-96.8224,5,DALLAS 43,DALLAS 43 1,North Central,69,1.01939,70.338,-29.58,30.2,2.86,,1521,,,0,0,1,PQ,0,0,0,1,14
110164,29.9075,-95.3677,7,HUMBLE 1,HUMBLE 1 1,Coast,69,1.00954,69.658,-27.87,30.2,11.5,,74,,,0,0,1,PQ,0,0,0,1,12
130125,32.8671,-96.9295,5,IRVING 4,IRVING 4 1,North Central,69,0.98698,68.102,-32.16,30.2,3.53,,1377,,,0,0,1,PQ,0,0,0,1,14
110431,29.7753,-95.2607,7,GALENA PARK 7,GALENA PARK 7 1,Coast,69,1.00409,69.282,-28.48,30.1,12,,292,,,0,0,1,PQ,0,0,0,1,12
260060,32.7753,-97.0168,5,GRAND PRAIRIE 20,GRAND PRAIRIE 20 1,North Central,69,0.99017,68.322,-29.23,30.1,12.6,,4607,,,0,0,1,PQ,0,0,0,2,27
170436,33.227,-97.0791,5,DENTON 4,DENTON 4 1,North Central,69,1.04044,71.79,-25.42,30.1,10.4,,2790,,75.34,0,0,1,PQ,0,0,0,1,18
110915,29.6655,-95.5351,7,STAFFORD 15,STAFFORD 15 2,Coast,69,1.00002,69.001,-24.78,30,5,,664,,,0,0,1,PQ,0,0,0,1,12
140275,30.5686,-97.6709,6,ROUND ROCK 9,ROUND ROCK 9 1,South Central,69,0.98513,67.974,-8.61,30,7.3,,1789,,,0,0,1,PQ,0,0,0,1,15
140206,30.2113,-97.851,6,MANCHACA 4,MANCHACA 4 2,South Central,69,1.02246,70.55,-9.18,30,4.25,,1742,,,0,0,1,PQ,0,0,0,1,15
210132,31.523,-97.1545,5,WACO 4,WACO 4 1,North Central,69,1.02319,70.6,-5.64,30,10.24,,3426,,,0,0,1,PQ,0,0,0,2,22
260115,33.036,-97.0404,5,LEWISVILLE 7,LEWISVILLE 7 1,North Central,69,1.00246,69.17,-32.34,30,11.37,,4647,,,0,0,1,PQ,0,0,0,2,27
111175,29.7181,-95.614,7,SUGAR LAND 76,SUGAR LAND 76 2,Coast,69,1.01527,70.053,-23.61,30,1.65,,825,,,0,0,1,PQ,0,0,0,1,12
250212,31.9442,-95.2752,8,JACKSONVILLE 3,JACKSONVILLE 3 1,East,138,1.0364,143.023,-7.57,30,6.1,,4432,,,0,0,1,PQ,0,0,0,2,26
150348,32.6093,-97.3843,5,CROWLEY 11,CROWLEY 11 1,North Central,69,1.03258,71.248,-18.32,30,6.9,,2108,,,0,0,1,PQ,0,0,0,1,16
210218,31.4421,-97.4096,5,MC GREGOR 2,MC GREGOR 2 2,North Central,69,1.02684,70.852,-4.43,29.9,6.07,,3487,,,0,0,1,PQ,0,0,0,2,22
110436,29.5476,-95.0948,7,WEBSTER 2,WEBSTER 2 1,Coast,69,1.00228,69.157,-26.91,29.9,7.6,,294,,,0,0,1,PQ,0,0,0,1,12
150301,32.8441,-97.3838,5,NAVAL AIR STATION_ JRB 6,NAVAL AIR STATION_ JRB 6 1,North Central,69,1.01067,69.737,-21.48,29.9,9.1,,2076,,,0,0,1,PQ,0,0,0,1,16
210261,31.1108,-97.4254,5,BELTON 4,BELTON 4 1,North Central,69,1.0181,70.249,-4.96,29.8,3.45,,3524,,,0,0,1,PQ,0,0,0,2,22
200034,26.2362,-98.3115,4,MISSION 5,MISSION 5 1,South,138,1.03887,143.364,26.57,29.8,8.8,,3169,,,0,0,1,PQ,0,0,0,2,21
120251,29.4326,-98.6943,6,LACKLAND A F B 3,LACKLAND A F B 3 1,South Central,69,1.01269,69.876,1.4,29.8,9.5,,1116,,,0,0,1,PQ,0,0,0,1,13
110708,29.8514,-95.4178,7,HOUSTON 17,HOUSTON 17 1,Coast,69,0.99495,68.652,-28.05,29.8,10,,518,,,0,0,1,PQ,0,0,0,1,12
180007,27.5862,-99.5157,4,LAREDO 3,LAREDO 3 1,South,138,1.0356,142.913,20.26,29.8,6.3,,2889,,,0,0,1,PQ,0,0,0,1,19
200133,26.1236,-98.2116,4,HIDALGO 4,HIDALGO 4 1,South,138,1.04693,144.476,25.53,29.8,7.3,,3266,,90.07,0,0,1,PQ,0,0,0,2,21
